geo_id,zipcode,is_primary,latitude,longitude,elevation,state,state_full_name,area_code,city,city_display,county,county_fips,state_fips,timezone,daylight_saving,region,division,congress_district,congress_land_area,country,continent,country_iso2
8278,14467,t,43.043294,-77.614181,513,NY,New York,585,HENRIETTA,Henrietta,MONROE,055,36,5,Y,Northeast,Middle Atlantic,25|27,510.19|3973.13,USA,North America,US
3430,6258,t,41.8975,-71.9631,287,CT,Connecticut,860,POMFRET,Pomfret,WINDHAM,015,09,5,Y,Northeast,New England,02,1987.68,USA,North America,US
48308,78234,t,29.462264,-98.4414,675,TX,Texas,210,SAN ANTONIO,San Antonio,BEXAR,029,48,6,Y,South,West South Central,21,5920.89,USA,North America,US
382713,E2K1K7,t,45.276163,-66.080195,57,New Brunswick / Nouveau-Brunswick,New Brunswick / Nouveau-Brunswick,CA-NB,Saint John,Saint John,Saint John,,CA04,,-03:00,,,,,CAN,North America,CA
8165,14213,t,42.916747,-78.892782,583,NY,New York,716,BUFFALO,Buffalo,ERIE,029,36,5,Y,Northeast,Middle Atlantic,26,219.13,USA,North America,US
21421,33890,t,27.486423,-81.708558,109,FL,Florida,863,ZOLFO SPRINGS,Zolfo Springs,HARDEE,049,12,5,Y,South,South Atlantic,17,6369.97,USA,North America,US
48598,78582,t,26.510284,-98.675196,3462,TX,Texas,956,RIO GRANDE CITY,Rio Grande City,STARR,427,48,6,Y,South,West South Central,28,9378.53,USA,North America,US
44242,72024,t,34.74584,-91.742255,242,AR,Arkansas,870,CARLISLE,Carlisle,LONOKE,085,05,6,Y,South,West South Central,01,19318.29,USA,North America,US
10736,18042,t,40.655162,-75.222839,211,PA,Pennsylvania,610,EASTON,Easton,NORTHAMPTON,095,42,5,Y,Northeast,Middle Atlantic,06|08|15|17,860.47|706.93|1285.03|1733.22,USA,North America,US
45056,73102,t,35.471526,-97.51889,1197,OK,Oklahoma,405,OKLAHOMA CITY,Oklahoma City,OKLAHOMA,109,40,6,Y,South,West South Central,05,2073.9,USA,North America,US
44773,72658,t,36.169296,-92.299089,756,AR,Arkansas,870,NORFORK,Norfork,BAXTER,005,05,6,Y,South,West South Central,01,19318.29,USA,North America,US
17343,28546,t,34.817584,-77.375096,15,NC,North Carolina,910,JACKSONVILLE,Jacksonville,ONSLOW,133,37,5,Y,South,South Atlantic,03,7810.08,USA,North America,US
5851,10985,t,41.579564,-74.358946,431,NY,New York,845,THOMPSON RIDGE,Thompson Ridge,ORANGE,071,36,5,Y,Northeast,Middle Atlantic,18,1353.42,USA,North America,US
28817,46567,t,41.401642,-85.732872,824,IN,Indiana,574,SYRACUSE,Syracuse,KOSCIUSKO,085,18,5,Y,Midwest,East North Central,02|03,3958.58|4180.37,USA,North America,US
11807,19711,t,39.715481,-75.731829,100,DE,Delaware,302,NEWARK,Newark,NEW CASTLE,003,10,5,Y,South,South Atlantic,"","",USA,North America,US
12952,21043,t,39.256902,-76.791739,233,MD,Maryland,410/301/443,ELLICOTT CITY,Ellicott City,HOWARD,027,24,5,Y,South,South Atlantic,02|03|07,348.88|304.14|488.03,USA,North America,US
3799,6850,t,41.126856,-73.440972,9,CT,Connecticut,203,NORWALK,Norwalk,FAIRFIELD,001,09,5,Y,Northeast,New England,04,460.73,USA,North America,US
26421,43062,t,40.000678,-82.676977,829,OH,Ohio,740/614,PATASKALA,Pataskala,LICKING,089,39,5,Y,Midwest,East North Central,03|12|15,228|2271.91|4738.93,USA,North America,US
18412,29920,t,32.37773,-80.53973,11,SC,South Carolina,843,SAINT HELENA ISLAND,Saint Helena Island,BEAUFORT,013,45,5,Y,South,South Atlantic,01,1547.86,USA,North America,US
1166,2379,t,42.017525,-71.023459,50,MA,Massachusetts,508,WEST BRIDGEWATER,West Bridgewater,PLYMOUTH,023,25,5,Y,Northeast,New England,08,326.37,USA,North America,US
23818,38112,t,35.144974,-89.981528,273,TN,Tennessee,901,MEMPHIS,Memphis,SHELBY,157,47,6,Y,South,East South Central,09,483.39,USA,North America,US
8696,15066,t,40.759094,-80.246062,710,PA,Pennsylvania,724,NEW BRIGHTON,New Brighton,BEAVER,007,42,5,Y,Northeast,Middle Atlantic,12,2163.03,USA,North America,US
44599,72436,t,36.224022,-90.479813,276,AR,Arkansas,870,LAFE,Lafe,GREENE,055,05,6,Y,South,West South Central,01,19318.29,USA,North America,US
57621,96818,t,21.345634,-157.932287,32,HI,Hawaii,808,HONOLULU,Honolulu,HONOLULU,003,15,10,N,West,Pacific,01,209.22,USA,North America,US
818669,G7B4R6,t,48.326624,-70.901314,,Québec / Quebec,Québec / Quebec,CA-QC,La Baie,La Baie,Le Saguenay-et-son-Fjord,,CA10,,-04:00,,,,,CAN,North America,CA
52021,85303,t,33.530804,-112.219974,1082,AZ,Arizona,623/602,GLENDALE,Glendale,MARICOPA,013,04,7,N,West,Mountain,07|08,205.12|539.66,USA,North America,US
50947,83462,t,45.293259,-113.858035,4004,ID,Idaho,208,CARMEN,Carmen,LEMHI,059,16,7,Y,West,Mountain,02,43225.09,USA,North America,US
584485,K1P5W6,t,45.313922,-75.831596,56,Ontario,Ontario,CA-ON,Ottawa,Ottawa,Ottawa,,CA08,,-04:00,,,,,CAN,North America,CA
16381,27316,t,35.687416,-79.616002,855,NC,North Carolina,336,RAMSEUR,Ramseur,RANDOLPH,151,37,5,Y,South,South Atlantic,02,3246.68,USA,North America,US
7227,12957,t,44.851056,-74.571742,756,NY,New York,518,MOIRA,Moira,FRANKLIN,033,36,5,Y,Northeast,Middle Atlantic,21,15114.76,USA,North America,US
55803,94028,t,37.36888,-122.214268,15,CA,California,650/415,PORTOLA VALLEY,Portola Valley,SAN MATEO,081,06,8,Y,West,Pacific,18,696.12,USA,North America,US
4542,8084,t,39.830214,-75.016135,33,NJ,New Jersey,856,STRATFORD,Stratford,CAMDEN,007,34,5,Y,Northeast,Middle Atlantic,01,350.02,USA,North America,US
55155,92831,t,33.876775,-117.893091,110,CA,California,714,FULLERTON,Fullerton,ORANGE,059,06,8,Y,West,Pacific,39,204.4,USA,North America,US
840376,J4G1E6,t,45.570349,-73.473595,6,Québec / Quebec,Québec / Quebec,CA-QC,Longueuil,Longueuil,Longueuil,,CA10,,-04:00,,,,,CAN,North America,CA
206678,V8L5X2,t,48.655168,-123.414343,4,British Columbia / Colombie Britanique,British Columbia / Colombie Britanique,CA-BC,Sidney,Sidney,Capital,,CA02,,-07:00,,,,,CAN,North America,CA
11947,20009,t,38.920392,-77.038564,0,DC,District of Columbia,202,WASHINGTON,Washington,DISTRICT OF COLUMBIA,001,11,5,Y,South,South Atlantic,98,61.40,USA,North America,US
33735,54615,t,44.246822,-90.77217,796,WI,Wisconsin,715/608,BLACK RIVER FALLS,Black River Falls,JACKSON,053,55,6,Y,Midwest,East North Central,03,11111.79,USA,North America,US
32086,51029,t,42.873454,-95.54414,1201,IA,Iowa,712,LARRABEE,Larrabee,CHEROKEE,035,19,6,Y,Midwest,West North Central,04,22756.75,USA,North America,US
21453,33915,t,26.5626,-81.9499,10,FL,Florida,239,CAPE CORAL,Cape Coral,LEE,071,12,5,Y,South,South Atlantic,19,750.37,USA,North America,US
48844,78801,t,29.355531,-99.841519,907,TX,Texas,830,UVALDE,Uvalde,UVALDE,463,48,6,Y,South,West South Central,21|23,5920.89|58059.18,USA,North America,US
128,726,t,18.2364,-66.0489,0,PR,Puerto Rico,787,CAGUAS,Caguas,CAGUAS,025,72,4,N,"","","","",USA,North America,US
37762,60639,t,41.920394,-87.755987,596,IL,Illinois,773/312/847,CHICAGO,Chicago,COOK,031,17,6,Y,Midwest,East North Central,04|07,52.45|62.52,USA,North America,US
44380,72118,t,34.84336,-92.324612,264,AR,Arkansas,501,NORTH LITTLE ROCK,North Little Rock,PULASKI,119,05,6,Y,South,West South Central,02,4978.12,USA,North America,US
32730,52658,t,40.71338,-91.23201,522,IA,Iowa,319,WEVER,Wever,LEE,111,19,6,Y,Midwest,West North Central,02,12261.92,USA,North America,US
582129,K1H6E7,t,45.387699,-75.664802,56,Ontario,Ontario,CA-ON,Ottawa,Ottawa,Ottawa,,CA08,,-04:00,,,,,CAN,North America,CA
57092,95965,t,39.651026,-121.644342,174,CA,California,530,OROVILLE,Oroville,BUTTE,007,06,8,Y,West,Pacific,01,28089.47,USA,North America,US
1228,2493,t,42.357814,-71.295386,40,MA,Massachusetts,781/617,WESTON,Weston,MIDDLESEX,017,25,5,Y,Northeast,New England,04|05,668.27|265.08,USA,North America,US
14768,24230,t,36.972358,-82.490804,2454,VA,Virginia,276,COEBURN,Coeburn,WISE,195,51,5,Y,South,South Atlantic,09,9113.87,USA,North America,US
47455,77039,t,29.910815,-95.337922,38,TX,Texas,281/832,HOUSTON,Houston,HARRIS,201,48,6,Y,South,West South Central,18|29,235.2|187.07,USA,North America,US
28714,46356,t,41.255106,-87.408781,735,IN,Indiana,219,LOWELL,Lowell,LAKE,089,18,6,Y,Midwest,East North Central,01,1157.02,USA,North America,US
43364,70615,t,30.253142,-93.11028,21,LA,Louisiana,337,LAKE CHARLES,Lake Charles,CALCASIEU,019,22,6,Y,South,West South Central,03,6983.32,USA,North America,US
56667,95451,t,38.943074,-122.791482,1343,CA,California,707,KELSEYVILLE,Kelseyville,LAKE,033,06,8,Y,West,Pacific,02|03|05,12952.23|6183.59|1730.82,USA,North America,US
59445,99523,t,61.2181,-149.9003,0,AK,Alaska,907,ANCHORAGE,Anchorage,ANCHORAGE,020,02,9,Y,West,Pacific,00,571951.26,USA,North America,US
12861,20879,t,39.176351,-77.183173,508,MD,Maryland,301/240,GAITHERSBURG,Gaithersburg,MONTGOMERY,031,24,5,Y,South,South Atlantic,06,1950.26,USA,North America,US
43507,70817,t,30.379332,-90.971524,60,LA,Louisiana,225,BATON ROUGE,Baton Rouge,EAST BATON ROUGE,033,22,6,Y,South,West South Central,06,4033.89,USA,North America,US
16981,28150,t,35.364426,-81.5682,853,NC,North Carolina,704,SHELBY,Shelby,CLEVELAND,045,37,5,Y,South,South Atlantic,10,2575.16,USA,North America,US
38625,61944,t,39.60559,-87.706418,726,IL,Illinois,217,PARIS,Paris,EDGAR,045,17,6,Y,Midwest,East North Central,15,14695.67,USA,North America,US
37656,60534,t,41.813272,-87.821126,596,IL,Illinois,708/773,LYONS,Lyons,COOK,031,17,6,Y,Midwest,East North Central,03|04,237.18|52.45,USA,North America,US
8149,14202,t,42.888298,-78.885398,583,NY,New York,716,BUFFALO,Buffalo,ERIE,029,36,5,Y,Northeast,Middle Atlantic,26,219.13,USA,North America,US
16666,27808,t,35.473271,-76.760011,8,NC,North Carolina,252,BATH,Bath,BEAUFORT,013,37,5,Y,South,South Atlantic,03,7810.08,USA,North America,US
30286,48446,t,43.05416,-83.330114,827,MI,Michigan,810,LAPEER,Lapeer,LAPEER,087,26,5,Y,Midwest,East North Central,10,4140.44,USA,North America,US
28828,46601,t,41.672515,-86.253312,712,IN,Indiana,574,SOUTH BEND,South Bend,ST JOSEPH,141,18,5,Y,Midwest,East North Central,02,3958.58,USA,North America,US
100110,,t,,,,,,,,,,,,,,,,,,COL,South America,CO
18672,30214,t,33.480465,-84.480396,937,GA,Georgia,770/678/404,FAYETTEVILLE,Fayetteville,FAYETTE,113,13,5,Y,South,South Atlantic,03|13,3838.27|714.95,USA,North America,US
18905,30415,t,32.334668,-81.600755,258,GA,Georgia,912,BROOKLET,Brooklet,BULLOCH,031,13,5,Y,South,South Atlantic,12,8185.27,USA,North America,US
34842,56031,t,43.630462,-94.460674,1195,MN,Minnesota,507,FAIRMONT,Fairmont,MARTIN,091,27,6,Y,Midwest,West North Central,01,11973.99,USA,North America,US
910163,G1K3G8,t,46.812441,-71.227497,83,Québec / Quebec,Québec / Quebec,CA-QC,Québec,Québec,Québec / Quebec,,CA10,,-04:00,,,,,CAN,North America,CA
14402,23521,t,36.917666,-76.163655,0,VA,Virginia,757,NORFOLK,Norfolk,NORFOLK CITY,710,51,5,Y,South,South Atlantic,"","",USA,North America,US
46093,75110,t,32.076944,-96.522284,418,TX,Texas,903,CORSICANA,Corsicana,NAVARRO,349,48,6,Y,South,West South Central,06,2148.41,USA,North America,US
3512,6384,t,41.57771,-71.835824,33,CT,Connecticut,860,VOLUNTOWN,Voluntown,NEW LONDON,011,09,5,Y,Northeast,New England,02,1987.68,USA,North America,US
21695,34285,t,27.091088,-82.429966,27,FL,Florida,941,VENICE,Venice,SARASOTA,115,12,5,Y,South,South Atlantic,16,875.33,USA,North America,US
34411,55423,t,44.877195,-93.275584,812,MN,Minnesota,612/952,MINNEAPOLIS,Minneapolis,HENNEPIN,053,27,6,Y,Midwest,West North Central,03|05,527.05|135.66,USA,North America,US
9482,16214,t,41.219849,-79.353051,1491,PA,Pennsylvania,814,CLARION,Clarion,CLARION,031,42,5,Y,Northeast,Middle Atlantic,03|05,3850.8|10711.21,USA,North America,US
870,1905,t,42.475945,-70.980115,9,MA,Massachusetts,781/339/617,LYNN,Lynn,ESSEX,009,25,5,Y,Northeast,New England,06,526.79,USA,North America,US
3931,7044,t,40.833454,-74.24075,95,NJ,New Jersey,973/201,VERONA,Verona,ESSEX,013,34,5,Y,Northeast,Middle Atlantic,10|11,75.92|504.97,USA,North America,US
18706,30260,t,33.584613,-84.328098,917,GA,Georgia,770/678/404,MORROW,Morrow,CLAYTON,063,13,5,Y,South,South Atlantic,05|13,264.91|714.95,USA,North America,US
877914,H3G1R8,t,45.496112,-73.576751,16,Québec / Quebec,Québec / Quebec,CA-QC,Montréal,Montréal,Montréal / Montreal,,CA10,,-04:00,,,,,CAN,North America,CA
9729,16662,t,40.270558,-78.31054,953,PA,Pennsylvania,814,MARTINSBURG,Martinsburg,BLAIR,013,42,5,Y,Northeast,Middle Atlantic,09,5730.09,USA,North America,US
24872,39577,t,30.900519,-89.095252,282,MS,Mississippi,601,WIGGINS,Wiggins,STONE,131,28,6,Y,South,East South Central,04,8044.48,USA,North America,US
32364,52060,t,42.098356,-90.677465,684,IA,Iowa,563,MAQUOKETA,Maquoketa,JACKSON,097,19,6,Y,Midwest,West North Central,01|02,12048.84|12261.92,USA,North America,US
34949,56157,t,44.39896,-95.948034,1174,MN,Minnesota,507,LYND,Lynd,LYON,083,27,6,Y,Midwest,West North Central,07,33429.31,USA,North America,US
4567,8095,t,39.656982,-74.862716,33,NJ,New Jersey,609/856,WINSLOW,Winslow,CAMDEN,007,34,5,Y,Northeast,Middle Atlantic,01,350.02,USA,North America,US
57245,96104,t,41.393204,-120.152662,4366,CA,California,530,CEDARVILLE,Cedarville,MODOC,049,06,8,Y,West,Pacific,01,28089.47,USA,North America,US
55072,92672,t,33.392882,-117.529632,110,CA,California,949,SAN CLEMENTE,San Clemente,ORANGE,059,06,8,Y,West,Pacific,49,553.08,USA,North America,US
24201,38658,t,34.193745,-89.918879,234,MS,Mississippi,662,POPE,Pope,PANOLA,107,28,6,Y,South,East South Central,02,15551.51,USA,North America,US
59326,99202,t,47.656466,-117.380343,1909,WA,Washington,509,SPOKANE,Spokane,SPOKANE,063,53,8,Y,West,Pacific,05,15473.13,USA,North America,US
48268,78204,t,29.406044,-98.507786,675,TX,Texas,210,SAN ANTONIO,San Antonio,BEXAR,029,48,6,Y,South,West South Central,20|35,199.68|593.77,USA,North America,US
23037,36804,t,32.556397,-85.33065,822,AL,Alabama,334,OPELIKA,Opelika,LEE,081,01,6,Y,South,East South Central,03,7543.86,USA,North America,US
57167,96032,t,41.615624,-122.93635,2635,CA,California,530,FORT JONES,Fort Jones,SISKIYOU,093,06,8,Y,West,Pacific,01,28089.47,USA,North America,US
30409,48661,t,44.341441,-84.203015,953,MI,Michigan,989,WEST BRANCH,West Branch,OGEMAW,129,26,5,Y,Midwest,East North Central,04,8457.8,USA,North America,US
27245,44253,t,41.166473,-82.035751,1085,OH,Ohio,330,LITCHFIELD,Litchfield,MEDINA,103,39,5,Y,Midwest,East North Central,07,3864.76,USA,North America,US
26745,43551,t,41.536223,-83.564239,696,OH,Ohio,419,PERRYSBURG,Perrysburg,WOOD,173,39,5,Y,Midwest,East North Central,05,5626.47,USA,North America,US
158229,T5G0X5,t,53.567098,-113.522156,668,Alberta,Alberta,CA-AB,Edmonton,Edmonton,Edmonton,,CA01,,-06:00,,,,,CAN,North America,CA
59067,98663,t,45.652291,-122.6638,26,WA,Washington,360,VANCOUVER,Vancouver,CLARK,011,53,8,Y,West,Pacific,03,9114.01,USA,North America,US
11887,19930,t,38.556086,-75.06921,52,DE,Delaware,302,BETHANY BEACH,Bethany Beach,SUSSEX,005,10,5,Y,South,South Atlantic,"","",USA,North America,US
47110,76522,t,31.263364,-98.087825,774,TX,Texas,254/512,COPPERAS COVE,Copperas Cove,CORYELL,099,48,6,Y,South,West South Central,25,7620.7,USA,North America,US
45618,74135,t,36.09712,-95.922304,735,OK,Oklahoma,918,TULSA,Tulsa,TULSA,143,40,6,Y,South,West South Central,01,1631.67,USA,North America,US
31646,50311,t,41.601575,-93.684418,805,IA,Iowa,515,DES MOINES,Des Moines,POLK,153,19,6,Y,Midwest,West North Central,03,8789.62,USA,North America,US
25646,41076,t,39.011324,-84.440731,823,KY,Kentucky,859,NEWPORT,Newport,CAMPBELL,037,21,5,Y,South,East South Central,04,4382.19,USA,North America,US
54708,92234,t,33.814227,-116.462986,851,CA,California,760,CATHEDRAL CITY,Cathedral City,RIVERSIDE,065,06,8,Y,West,Pacific,36,5912.64,USA,North America,US
4295,7762,t,40.15362,-74.038347,178,NJ,New Jersey,732,SPRING LAKE,Spring Lake,MONMOUTH,025,34,5,Y,Northeast,Middle Atlantic,04,691.88,USA,North America,US
29525,47576,t,38.190748,-86.59941,426,IN,Indiana,812,SAINT CROIX,Saint Croix,PERRY,123,18,6,Y,Midwest,East North Central,08,7255.39,USA,North America,US
51576,84327,t,41.87903,-111.997735,4499,UT,Utah,435,NEWTON,Newton,CACHE,005,49,7,Y,West,Mountain,01,19560.79,USA,North America,US
6934,12564,t,41.579772,-73.59082,209,NY,New York,845/914,PAWLING,Pawling,DUTCHESS,027,36,5,Y,Northeast,Middle Atlantic,18|19,1353.42|7937.02,USA,North America,US
55337,93247,t,36.219506,-119.082482,331,CA,California,559/805,LINDSAY,Lindsay,TULARE,107,06,8,Y,West,Pacific,22|23,1165.12|9898,USA,North America,US
13545,22150,t,38.76113,-77.186046,447,VA,Virginia,703/202,SPRINGFIELD,Springfield,FAIRFAX,059,51,5,Y,South,South Atlantic,08|11,149.24|185.09,USA,North America,US
26530,43205,t,39.9579,-82.962282,744,OH,Ohio,614,COLUMBUS,Columbus,FRANKLIN,049,39,5,Y,Midwest,East North Central,03,228,USA,North America,US
100006,,t,,,,,,,,,,,,,,,,,,VIR,South America,VI
27711,45040,t,39.352362,-84.300317,696,OH,Ohio,513,MASON,Mason,WARREN,165,39,5,Y,Midwest,East North Central,01,686.96,USA,North America,US
44857,72773,t,35.9225,-93.894076,1453,AR,Arkansas,479,WESLEY,Wesley,MADISON,087,05,6,Y,South,West South Central,03|04,5400.99|22338.08,USA,North America,US
22463,35951,t,34.337536,-86.15906,592,AL,Alabama,256,ALBERTVILLE,Albertville,MARSHALL,095,01,6,Y,South,East South Central,04,8888.77,USA,North America,US
45540,74047,t,35.842326,-96.006291,679,OK,Oklahoma,918,MOUNDS,Mounds,CREEK,037,40,6,Y,South,West South Central,01|02,1631.67|20995.35,USA,North America,US
18585,30114,t,34.254681,-84.509153,894,GA,Georgia,770/678,CANTON,Canton,CHEROKEE,057,13,5,Y,South,South Atlantic,11,1071.25,USA,North America,US
33039,53235,t,42.97297,-87.871975,593,WI,Wisconsin,414,SAINT FRANCIS,Saint Francis,MILWAUKEE,079,55,6,Y,Midwest,East North Central,04,128.35,USA,North America,US
831294,J0R1R6,t,45.893088,-74.15281,212,Québec / Quebec,Québec / Quebec,CA-QC,Saint-Sauveur,Saint-Sauveur,Les Pays-d'en-Haut,,CA10,,-04:00,,,,,CAN,North America,CA
40559,64761,t,38.590232,-93.681106,830,MO,Missouri,660,LEETON,Leeton,JOHNSON,101,29,6,Y,Midwest,West North Central,04,14401.38,USA,North America,US
24630,39216,t,32.335646,-90.157825,283,MS,Mississippi,601,JACKSON,Jackson,HINDS,049,28,6,Y,South,East South Central,02|03,15551.51|12754.48,USA,North America,US
55020,92612,t,33.661515,-117.821661,110,CA,California,949/714,IRVINE,Irvine,ORANGE,059,06,8,Y,West,Pacific,45,330.39,USA,North America,US
11216,18976,t,40.249212,-75.144388,340,PA,Pennsylvania,215/267,WARRINGTON,Warrington,BUCKS,017,42,5,Y,Northeast,Middle Atlantic,08,706.93,USA,North America,US
51842,85021,t,33.560458,-112.093686,1082,AZ,Arizona,602/480/623,PHOENIX,Phoenix,MARICOPA,013,04,7,N,West,Mountain,06|07|09,625.07|205.12|164.79,USA,North America,US
32936,53130,t,42.940823,-88.047702,593,WI,Wisconsin,414,HALES CORNERS,Hales Corners,MILWAUKEE,079,55,6,Y,Midwest,East North Central,01,1727.92,USA,North America,US
39647,63088,t,38.549899,-90.509941,552,MO,Missouri,636/314,VALLEY PARK,Valley Park,SAINT LOUIS,189,29,6,Y,Midwest,West North Central,02,465.76,USA,North America,US
703220,N2K1R4,t,43.481166,-80.485871,330,Ontario,Ontario,CA-ON,Kitchener,Kitchener,Waterloo,,CA08,,-04:00,,,,,CAN,North America,CA
21114,33545,t,28.265774,-82.294969,107,FL,Florida,813,WESLEY CHAPEL,Wesley Chapel,PASCO,101,12,5,Y,South,South Atlantic,12,883.75,USA,North America,US
50262,81201,t,38.557821,-106.039252,7038,CO,Colorado,719,SALIDA,Salida,CHAFFEE,015,08,7,Y,West,Mountain,05,7265.72,USA,North America,US
32881,53072,t,43.080391,-88.261808,821,WI,Wisconsin,262/414,PEWAUKEE,Pewaukee,WAUKESHA,133,55,6,Y,Midwest,East North Central,05,1890.75,USA,North America,US
11180,18940,t,40.264967,-74.956331,340,PA,Pennsylvania,215/267,NEWTOWN,Newtown,BUCKS,017,42,5,Y,Northeast,Middle Atlantic,08,706.93,USA,North America,US
50921,83436,t,43.894958,-111.488768,4968,ID,Idaho,208,NEWDALE,Newdale,FREMONT,043,16,7,Y,West,Mountain,02,43225.09,USA,North America,US
50364,81428,t,38.998914,-107.62177,4953,CO,Colorado,970,PAONIA,Paonia,DELTA,029,08,7,Y,West,Mountain,03,49731.77,USA,North America,US
46205,75244,t,32.930328,-96.835261,463,TX,Texas,972/469/214,DALLAS,Dallas,DALLAS,113,48,6,Y,South,West South Central,24,262.76,USA,North America,US
12846,20862,t,39.180483,-77.014389,508,MD,Maryland,301,BRINKLOW,Brinklow,MONTGOMERY,031,24,5,Y,South,South Atlantic,03,304.14,USA,North America,US
30723,49111,t,42.01553,-86.281503,591,MI,Michigan,269,EAU CLAIRE,Eau Claire,BERRIEN,021,26,5,Y,Midwest,East North Central,06,3546.74,USA,North America,US
47518,77091,t,29.855376,-95.444804,38,TX,Texas,713/281,HOUSTON,Houston,HARRIS,201,48,6,Y,South,West South Central,18|29,235.2|187.07,USA,North America,US
45884,74801,t,35.296806,-96.950685,1043,OK,Oklahoma,405,SHAWNEE,Shawnee,POTTAWATOMIE,125,40,6,Y,South,West South Central,05,2073.9,USA,North America,US
11131,18840,t,41.972882,-76.483535,737,PA,Pennsylvania,570,SAYRE,Sayre,BRADFORD,015,42,5,Y,Northeast,Middle Atlantic,10,8378.06,USA,North America,US
33677,54538,t,45.92821,-89.907396,1647,WI,Wisconsin,715,LAC DU FLAMBEAU,Lac Du Flambeau,VILAS,125,55,6,Y,Midwest,East North Central,07,23037.26,USA,North America,US
49757,80503,t,40.179731,-105.20545,5344,CO,Colorado,303/720,LONGMONT,Longmont,BOULDER,013,08,7,Y,West,Mountain,02|04,7535.34|38102.67,USA,North America,US
21709,34293,t,27.041813,-82.350172,27,FL,Florida,941,VENICE,Venice,SARASOTA,115,12,5,Y,South,South Atlantic,16,875.33,USA,North America,US
49144,79403,t,33.678054,-101.751108,3202,TX,Texas,806,LUBBOCK,Lubbock,LUBBOCK,303,48,6,Y,South,West South Central,19,25835.59,USA,North America,US
209028,V8R2K1,t,48.435932,-123.339657,62,British Columbia / Colombie Britanique,British Columbia / Colombie Britanique,CA-BC,Victoria,Victoria,Capital,,CA02,,-07:00,,,,,CAN,North America,CA
23524,37687,t,36.184737,-82.099814,1580,TN,Tennessee,423,ROAN MOUNTAIN,Roan Mountain,CARTER,019,47,5,Y,South,East South Central,01,4141.92,USA,North America,US
30621,49008,t,42.265107,-85.618972,753,MI,Michigan,269,KALAMAZOO,Kalamazoo,KALAMAZOO,077,26,5,Y,Midwest,East North Central,06,3546.74,USA,North America,US
9683,16603,t,40.5188,-78.3952,953,PA,Pennsylvania,814,ALTOONA,Altoona,BLAIR,013,42,5,Y,Northeast,Middle Atlantic,09,5730.09,USA,North America,US
11837,19803,t,39.799949,-75.539071,100,DE,Delaware,302,WILMINGTON,Wilmington,NEW CASTLE,003,10,5,Y,South,South Atlantic,"","",USA,North America,US
340693,R3J3T6,t,49.874835,-97.259972,228,Manitoba,Manitoba,CA-MB,Winnipeg,Winnipeg,Winnipeg,,CA03,,-05:00,,,,,CAN,North America,CA
4518,8068,t,39.95679,-74.653352,41,NJ,New Jersey,609,PEMBERTON,Pemberton,BURLINGTON,005,34,5,Y,Northeast,Middle Atlantic,03,899.7,USA,North America,US
21662,34241,t,27.224923,-82.254726,27,FL,Florida,941,SARASOTA,Sarasota,SARASOTA,115,12,5,Y,South,South Atlantic,16,875.33,USA,North America,US
58740,98354,t,47.249888,-122.315024,46,WA,Washington,253,MILTON,Milton,PIERCE,053,53,8,Y,West,Pacific,08|10,7359.7|826.67,USA,North America,US
21999,35063,t,33.819774,-87.012167,307,AL,Alabama,205,EMPIRE,Empire,WALKER,127,01,6,Y,South,East South Central,04|06,8888.77|4170.78,USA,North America,US
4864,8801,t,40.63305,-74.891656,179,NJ,New Jersey,908,ANNANDALE,Annandale,HUNTERDON,019,34,5,Y,Northeast,Middle Atlantic,07,970.19,USA,North America,US
7951,13827,t,42.096985,-76.276895,817,NY,New York,607,OWEGO,Owego,TIOGA,107,36,5,Y,Northeast,Middle Atlantic,22|23,5077.45|7371.65,USA,North America,US
5594,10309,t,40.53115,-74.217755,150,NY,New York,718/347,STATEN ISLAND,Staten Island,RICHMOND,085,36,5,Y,Northeast,Middle Atlantic,11,65.83,USA,North America,US
58235,97734,t,44.505832,-121.211518,2246,OR,Oregon,541,CULVER,Culver,JEFFERSON,031,41,8,Y,West,Pacific,02,69442.78,USA,North America,US
26682,43452,t,41.515107,-82.965048,5681,OH,Ohio,419/567,PORT CLINTON,Port Clinton,OTTAWA,123,39,5,Y,Midwest,East North Central,05|09,5626.47|464.65,USA,North America,US
39963,63623,t,37.670578,-90.845306,920,MO,Missouri,573,BELLEVIEW,Belleview,IRON,093,29,6,Y,Midwest,West North Central,08,19901.17,USA,North America,US
4057,7307,t,40.752244,-74.053636,21,NJ,New Jersey,201,JERSEY CITY,Jersey City,HUDSON,017,34,5,Y,Northeast,Middle Atlantic,08,54.69,USA,North America,US
4549,8087,t,39.62152,-74.386263,40,NJ,New Jersey,609,TUCKERTON,Tuckerton,OCEAN,029,34,5,Y,Northeast,Middle Atlantic,02,2092.43,USA,North America,US
18799,30328,t,33.934558,-84.395657,1050,GA,Georgia,404/770/678/470,ATLANTA,Atlanta,FULTON,121,13,5,Y,South,South Atlantic,06,298.76,USA,North America,US
24319,38804,t,34.286821,-88.671245,290,MS,Mississippi,662,TUPELO,Tupelo,LEE,081,28,6,Y,South,East South Central,01,10572.8,USA,North America,US
3557,6447,t,41.637948,-72.455882,38,CT,Connecticut,860,MARLBOROUGH,Marlborough,HARTFORD,003,09,5,Y,Northeast,New England,01|02,675.45|1987.68,USA,North America,US
57673,96857,t,21.47329,-158.097658,32,HI,Hawaii,808,SCHOFIELD BARRACKS,Schofield Barracks,HONOLULU,003,15,10,N,West,Pacific,02,6213.4,USA,North America,US
36298,58316,t,48.805495,-99.788732,1819,ND,North Dakota,701,BELCOURT,Belcourt,ROLETTE,079,38,6,Y,Midwest,West North Central,"","",USA,North America,US
34314,55354,t,44.870006,-94.08061,999,MN,Minnesota,320,LESTER PRAIRIE,Lester Prairie,MCLEOD,085,27,6,Y,Midwest,West North Central,07,33429.31,USA,North America,US
19990,32310,t,30.384952,-84.500468,160,FL,Florida,850,TALLAHASSEE,Tallahassee,LEON,073,12,5,Y,South,South Atlantic,02,8613.58,USA,North America,US
37694,60565,t,41.726899,-88.112509,746,IL,Illinois,630,NAPERVILLE,Naperville,DUPAGE,043,17,6,Y,Midwest,East North Central,11|14,280.95|1597.6,USA,North America,US
17369,28579,t,34.787934,-76.507202,12,NC,North Carolina,252,SMYRNA,Smyrna,CARTERET,031,37,5,Y,South,South Atlantic,03,7810.08,USA,North America,US
49592,80230,t,39.719953,-104.891753,5183,CO,Colorado,303/720,DENVER,Denver,DENVER,031,08,7,Y,West,Mountain,01|06,189.62|474.66,USA,North America,US
7938,13812,t,42.045306,-76.374332,817,NY,New York,607,NICHOLS,Nichols,TIOGA,107,36,5,Y,Northeast,Middle Atlantic,22|23,5077.45|7371.65,USA,North America,US
53786,90077,t,34.102676,-118.452472,267,CA,California,310/323/213,LOS ANGELES,Los Angeles,LOS ANGELES,037,06,8,Y,West,Pacific,30|33,135.94|288.58,USA,North America,US
37769,60644,t,41.880191,-87.757417,596,IL,Illinois,773/312,CHICAGO,Chicago,COOK,031,17,6,Y,Midwest,East North Central,07,62.52,USA,North America,US
3563,6457,t,41.549521,-72.651825,40,CT,Connecticut,860/203,MIDDLETOWN,Middletown,MIDDLESEX,007,09,5,Y,Northeast,New England,01|03|05,675.45|470.34|1248.16,USA,North America,US
17591,28745,t,35.525165,-82.973064,2635,NC,North Carolina,828,LAKE JUNALUSKA,Lake Junaluska,HAYWOOD,087,37,5,Y,South,South Atlantic,11,6838.24,USA,North America,US
9817,16830,t,41.089616,-78.441064,1110,PA,Pennsylvania,814,CLEARFIELD,Clearfield,CLEARFIELD,033,42,5,Y,Northeast,Middle Atlantic,05,10711.21,USA,North America,US
3924,7039,t,40.787614,-74.329999,95,NJ,New Jersey,973/862,LIVINGSTON,Livingston,ESSEX,013,34,5,Y,Northeast,Middle Atlantic,07|11,970.19|504.97,USA,North America,US
39934,63548,t,40.534907,-92.515158,979,MO,Missouri,660,LANCASTER,Lancaster,SCHUYLER,197,29,6,Y,Midwest,West North Central,06,18198.62,USA,North America,US
51284,84049,t,40.526723,-111.525084,5595,UT,Utah,435,MIDWAY,Midway,WASATCH,051,49,7,Y,West,Mountain,03,20070.54,USA,North America,US
41384,66401,t,38.974644,-96.316518,1095,KS,Kansas,785,ALMA,Alma,WABAUNSEE,197,20,6,Y,Midwest,West North Central,01,52542.5,USA,North America,US
58216,97701,t,44.086767,-121.257448,3629,OR,Oregon,541,BEND,Bend,DESCHUTES,017,41,8,Y,West,Pacific,02,69442.78,USA,North America,US
52103,85382,t,33.651723,-112.246213,1082,AZ,Arizona,623/602,PEORIA,Peoria,MARICOPA,013,04,7,N,West,Mountain,08,539.66,USA,North America,US
791781,H7E1A3,t,45.61163,-73.66739,13,Québec / Quebec,Québec / Quebec,CA-QC,Laval,Laval,Laval,,CA10,,-04:00,,,,,CAN,North America,CA
38545,61822,t,40.131856,-88.294924,725,IL,Illinois,217,CHAMPAIGN,Champaign,CHAMPAIGN,019,17,6,Y,Midwest,East North Central,13|15,5793.65|14695.67,USA,North America,US
5656,10514,t,41.173776,-73.771424,201,NY,New York,914,CHAPPAQUA,Chappaqua,WESTCHESTER,119,36,5,Y,Northeast,Middle Atlantic,17,382.63,USA,North America,US
779990,J3E1Y6,t,45.580852,-73.317646,32,Québec / Quebec,Québec / Quebec,CA-QC,Sainte-Julie,Sainte-Julie,Lajemmerais,,CA10,,-04:00,,,,,CAN,North America,CA
33641,54498,t,45.038605,-90.607002,997,WI,Wisconsin,715,WITHEE,Withee,CLARK,019,55,6,Y,Midwest,East North Central,07,23037.26,USA,North America,US
21859,34741,t,28.306895,-81.42294,19,FL,Florida,407/321,KISSIMMEE,Kissimmee,OSCEOLA,097,12,5,Y,South,South Atlantic,09,1707.49,USA,North America,US
100216,,t,,,,,,,,,,,,,,,,,,THA,Asia,TH
43656,71134,t,32.5253,-93.7501,210,LA,Louisiana,318,SHREVEPORT,Shreveport,CADDO,017,22,6,Y,South,West South Central,04,12435.1,USA,North America,US
46048,75069,t,33.180943,-96.59432,592,TX,Texas,972/214/469,MCKINNEY,McKinney,COLLIN,085,48,6,Y,South,West South Central,03,480.88,USA,North America,US
14347,23456,t,36.67483,-76.011469,0,VA,Virginia,757,VIRGINIA BEACH,Virginia Beach,VIRGINIA BEACH CITY,810,51,5,Y,South,South Atlantic,02,991.68,USA,North America,US
51968,85234,t,33.364632,-111.747279,1082,AZ,Arizona,480/602,GILBERT,Gilbert,MARICOPA,013,04,7,N,West,Mountain,05,293.47,USA,North America,US
28702,46342,t,41.518491,-87.236295,735,IN,Indiana,219,HOBART,Hobart,LAKE,089,18,6,Y,Midwest,East North Central,01,1157.02,USA,North America,US
39864,63445,t,40.43342,-91.721082,697,MO,Missouri,660/573,KAHOKA,Kahoka,CLARK,045,29,6,Y,Midwest,West North Central,06,18198.62,USA,North America,US
54697,92223,t,33.917086,-117.000084,851,CA,California,909,BEAUMONT,Beaumont,RIVERSIDE,065,06,8,Y,West,Pacific,08|36|42,32867.21|5912.64|935.96,USA,North America,US
24116,38571,t,36.048067,-85.041018,1863,TN,Tennessee,931,CROSSVILLE,Crossville,CUMBERLAND,035,47,6,Y,South,East South Central,06,6474.21,USA,North America,US
44979,73023,t,35.0527,-97.9361,1096,OK,Oklahoma,405,CHICKASHA,Chickasha,GRADY,051,40,6,Y,South,West South Central,04,9777.28,USA,North America,US
5766,10710,t,40.966828,-73.846755,201,NY,New York,914,YONKERS,Yonkers,WESTCHESTER,119,36,5,Y,Northeast,Middle Atlantic,16,78.37,USA,North America,US
46962,76234,t,33.280768,-97.518598,1058,TX,Texas,940,DECATUR,Decatur,WISE,497,48,6,Y,South,West South Central,12|13|26,1441.16|38349.24|907.15,USA,North America,US
47700,77373,t,30.071907,-95.373125,38,TX,Texas,281/713/832,SPRING,Spring,HARRIS,201,48,6,Y,South,West South Central,02|08|18,308.75|6053.76|235.2,USA,North America,US
13761,22567,t,38.238659,-77.926338,521,VA,Virginia,540,UNIONVILLE,Unionville,ORANGE,137,51,5,Y,South,South Atlantic,07,2776.39,USA,North America,US
12984,21084,t,39.613714,-76.457303,396,MD,Maryland,410/443,JARRETTSVILLE,Jarrettsville,HARFORD,025,24,5,Y,South,South Atlantic,01,3977.06,USA,North America,US
14459,23707,t,36.841234,-76.336338,0,VA,Virginia,757,PORTSMOUTH,Portsmouth,PORTSMOUTH CITY,740,51,5,Y,South,South Atlantic,03,947.1,USA,North America,US
27250,44256,t,41.133799,-81.855068,1085,OH,Ohio,330,MEDINA,Medina,MEDINA,103,39,5,Y,Midwest,East North Central,07|11|16,3864.76|244.46|1205.34,USA,North America,US
17168,28376,t,34.978726,-79.247015,254,NC,North Carolina,910,RAEFORD,Raeford,HOKE,093,37,5,Y,South,South Atlantic,02|07,3246.68|6161.77,USA,North America,US
476842,N0R1A0,t,42.293891,-82.726895,175,Ontario,Ontario,CA-ON,Belle River,Belle River,Essex,,CA08,,-04:00,,,,,CAN,North America,CA
822831,G4T1J3,t,47.383957,-61.858297,37,Québec / Quebec,Québec / Quebec,CA-QC,Cap-aux-Meules,Cap-aux-Meules,Les Îles-de-la-Madeleine,,CA10,,-03:00,,,,,CAN,North America,CA
31202,49802,t,45.801355,-88.071093,1160,MI,Michigan,906,KINGSFORD,Kingsford,DICKINSON,043,26,6,Y,Midwest,East North Central,01,25027.75,USA,North America,US
22716,36301,t,31.146161,-85.412448,326,AL,Alabama,334,DOTHAN,Dothan,HOUSTON,069,01,6,Y,South,East South Central,02,10141.63,USA,North America,US
12601,20619,t,38.289449,-76.530767,87,MD,Maryland,301/240,CALIFORNIA,California,SAINT MARYS,037,24,5,Y,South,South Atlantic,05,1481.24,USA,North America,US
56741,95540,t,40.585522,-124.131187,44,CA,California,707,FORTUNA,Fortuna,HUMBOLDT,023,06,8,Y,West,Pacific,02,12952.23,USA,North America,US
433054,B3B2A7,t,44.709679,-63.584988,52,Nova Scotia / Nouvelle-Écosse,Nova Scotia / Nouvelle-Écosse,CA-NS,Dartmouth,Dartmouth,Halifax,,CA07,,-03:00,,,,,CAN,North America,CA
584501,K1P6E2,t,45.419439,-75.699414,56,Ontario,Ontario,CA-ON,Ottawa,Ottawa,Ottawa,,CA08,,-04:00,,,,,CAN,North America,CA
39683,63121,t,38.707438,-90.303006,552,MO,Missouri,314,SAINT LOUIS,Saint Louis,SAINT LOUIS,189,29,6,Y,Midwest,West North Central,01,225.36,USA,North America,US
13644,22312,t,38.817522,-77.152674,447,VA,Virginia,703,ALEXANDRIA,Alexandria,FAIRFAX,059,51,5,Y,South,South Atlantic,08,149.24,USA,North America,US
58656,98282,t,48.16265,-122.447717,2,WA,Washington,360,CAMANO ISLAND,Camano Island,ISLAND,029,53,8,Y,West,Pacific,02,1015.02,USA,North America,US
19965,32257,t,30.195326,-81.619327,8,FL,Florida,904,JACKSONVILLE,Jacksonville,DUVAL,031,12,5,Y,South,South Atlantic,04,1875.97,USA,North America,US
34434,55435,t,44.874438,-93.334673,812,MN,Minnesota,952/612,MINNEAPOLIS,Minneapolis,HENNEPIN,053,27,6,Y,Midwest,West North Central,03,527.05,USA,North America,US
894553,H4S1J2,t,45.486626,-73.725922,22,Québec / Quebec,Québec / Quebec,CA-QC,Saint-Laurent,Saint-Laurent,Montréal / Montreal,,CA10,,-04:00,,,,,CAN,North America,CA
19844,32164,t,29.4803,-81.213952,20,FL,Florida,386,PALM COAST,Palm Coast,FLAGLER,035,12,5,Y,South,South Atlantic,06,2506.92,USA,North America,US
54561,92071,t,32.869887,-117.013039,13,CA,California,619/858,SANTEE,Santee,SAN DIEGO,073,06,8,Y,West,Pacific,50|53,2787.35|135.43,USA,North America,US
53937,90620,t,33.841658,-118.007763,110,CA,California,714,BUENA PARK,Buena Park,ORANGE,059,06,8,Y,West,Pacific,38|39|46|47,101.46|204.4|71.72|216.21,USA,North America,US
53563,89502,t,39.489562,-119.752051,4498,NV,Nevada,775/702,RENO,Reno,WASHOE,031,32,8,Y,West,Mountain,02,55829.71,USA,North America,US
954174,S6V5Y9,t,53.189288,-105.755012,425,Saskatchewan,Saskatchewan,CA-SK,Prince Albert,Prince Albert,Prince Albert,,CA11,,-06:00,,,,,CAN,North America,CA
25167,40208,t,38.217912,-85.762859,449,KY,Kentucky,502,LOUISVILLE,Louisville,JEFFERSON,111,21,5,Y,South,East South Central,03,319.34,USA,North America,US
47097,76504,t,31.129578,-97.38367,511,TX,Texas,254,TEMPLE,Temple,BELL,027,48,6,Y,South,West South Central,31,2154.49,USA,North America,US
46019,75041,t,32.875319,-96.647984,463,TX,Texas,972/214,GARLAND,Garland,DALLAS,113,48,6,Y,South,West South Central,05|32,5043.85|185.66,USA,North America,US
18835,30349,t,33.62189,-84.521194,1050,GA,Georgia,770/404/678,ATLANTA,Atlanta,FULTON,121,13,5,Y,South,South Atlantic,05|13,264.91|714.95,USA,North America,US
754176,J0C1K0,t,45.881572,-72.673819,64,Québec / Quebec,Québec / Quebec,CA-QC,Saint-Edmond-de-Grantham,Saint-Edmond-de-Grantham,Drummond,,CA10,,-04:00,,,,,CAN,North America,CA
32704,52641,t,41.019813,-91.59576,719,IA,Iowa,319,MOUNT PLEASANT,Mount Pleasant,HENRY,087,19,6,Y,Midwest,West North Central,02,12261.92,USA,North America,US
43753,71269,t,32.439523,-91.807287,81,LA,Louisiana,318,RAYVILLE,Rayville,RICHLAND,083,22,6,Y,South,West South Central,05,14452.88,USA,North America,US
55806,94035,t,37.414968,-122.051724,87,CA,California,650,MOUNTAIN VIEW,Mountain View,SANTA CLARA,085,06,8,Y,West,Pacific,18,696.12,USA,North America,US
55844,94107,t,37.76785,-122.392861,63,CA,California,415,SAN FRANCISCO,San Francisco,SAN FRANCISCO,075,06,8,Y,West,Pacific,01|12,28089.47|38.97,USA,North America,US
48010,77801,t,30.639301,-96.360977,367,TX,Texas,979,BRYAN,Bryan,BRAZOS,041,48,6,Y,South,West South Central,17,7651.16,USA,North America,US
31183,49783,t,46.375682,-84.301445,0,MI,Michigan,906,SAULT SAINTE MARIE,Sault Sainte Marie,CHIPPEWA,033,26,5,Y,Midwest,East North Central,01,25027.75,USA,North America,US
37346,60098,t,42.322091,-88.467115,942,IL,Illinois,815,WOODSTOCK,Woodstock,MCHENRY,111,17,6,Y,Midwest,East North Central,14,1597.6,USA,North America,US
53393,89123,t,36.035396,-115.149548,2028,NV,Nevada,702,LAS VEGAS,Las Vegas,CLARK,003,32,8,Y,West,Mountain,03,2848.99,USA,North America,US
37626,60510,t,41.840812,-88.33802,720,IL,Illinois,630,BATAVIA,Batavia,KANE,089,17,6,Y,Midwest,East North Central,14,1597.6,USA,North America,US
19809,32127,t,29.114039,-80.974033,62,FL,Florida,386,PORT ORANGE,Port Orange,VOLUSIA,127,12,5,Y,South,South Atlantic,06,2506.92,USA,North America,US
17993,29422,t,32.7765,-79.9312,118,SC,South Carolina,843,CHARLESTON,Charleston,CHARLESTON,019,45,5,Y,South,South Atlantic,01,1547.86,USA,North America,US
17173,28382,t,35.001127,-78.50655,152,NC,North Carolina,910,ROSEBORO,Roseboro,SAMPSON,163,37,5,Y,South,South Atlantic,07,6161.77,USA,North America,US
50125,81008,t,38.447006,-104.594949,4662,CO,Colorado,719,PUEBLO,Pueblo,PUEBLO,101,08,7,Y,West,Mountain,03|05,49731.77|7265.72,USA,North America,US
38400,61615,t,40.77395,-89.638145,468,IL,Illinois,309,PEORIA,Peoria,PEORIA,143,17,6,Y,Midwest,East North Central,17|18,6933.08|10515.95,USA,North America,US
8080,14085,t,42.716876,-78.929843,583,NY,New York,716,LAKE VIEW,Lake View,ERIE,029,36,5,Y,Northeast,Middle Atlantic,27,3973.13,USA,North America,US
5418,10112,t,40.759608,-73.979808,54,NY,New York,212,NEW YORK,New York,NEW YORK,061,36,5,Y,Northeast,Middle Atlantic,12,14.79,USA,North America,US
933828,G4R1K5,t,50.215321,-66.37114,4,Québec / Quebec,Québec / Quebec,CA-QC,Sept-Îles,Sept-Îles,Sept-Rivières - Caniapiscau,,CA10,,-04:00,,,,,CAN,North America,CA
58510,98133,t,47.739569,-122.344948,10,WA,Washington,206,SEATTLE,Seattle,KING,033,53,8,Y,West,Pacific,07,144.13,USA,North America,US
16933,28105,t,35.110446,-80.708955,721,NC,North Carolina,704,MATTHEWS,Matthews,MECKLENBURG,119,37,5,Y,South,South Atlantic,09|12,856.93|549.66,USA,North America,US
1172,2421,t,42.443014,-71.234851,40,MA,Massachusetts,781/617,LEXINGTON,Lexington,MIDDLESEX,017,25,5,Y,Northeast,New England,05,265.08,USA,North America,US
37587,60467,t,41.603002,-87.88938,596,IL,Illinois,708,ORLAND PARK,Orland Park,COOK,031,17,6,Y,Midwest,East North Central,01|03,258.38|237.18,USA,North America,US
32331,52033,t,42.276124,-91.009521,850,IA,Iowa,563,CASCADE,Cascade,DUBUQUE,061,19,6,Y,Midwest,West North Central,01,12048.84,USA,North America,US
37711,60606,t,41.882934,-87.636843,596,IL,Illinois,312/847/773/708,CHICAGO,Chicago,COOK,031,17,6,Y,Midwest,East North Central,07,62.52,USA,North America,US
202317,T9W1E9,t,52.837088,-110.85187,693,Alberta,Alberta,CA-AB,Wainwright,Wainwright,Wainwright,,CA01,,-06:00,,,,,CAN,North America,CA
53726,90043,t,33.985471,-118.337998,267,CA,California,323/310,LOS ANGELES,Los Angeles,LOS ANGELES,037,06,8,Y,West,Pacific,37|43,55.26|72.03,USA,North America,US
13625,22302,t,38.830715,-77.093618,0,VA,Virginia,703/571,ALEXANDRIA,Alexandria,ALEXANDRIA CITY,510,51,5,Y,South,South Atlantic,08,149.24,USA,North America,US
46523,75701,t,32.321252,-95.290824,521,TX,Texas,903,TYLER,Tyler,SMITH,423,48,6,Y,South,West South Central,01,7858.86,USA,North America,US
36017,57661,t,45.184356,-100.840592,2180,SD,South Dakota,605,WHITEHORSE,Whitehorse,DEWEY,041,46,7,Y,Midwest,West North Central,"","",USA,North America,US
46382,75491,t,33.486823,-96.410182,720,TX,Texas,903,WHITEWRIGHT,Whitewright,GRAYSON,181,48,6,Y,South,West South Central,04,10122.99,USA,North America,US
21989,35054,t,33.505938,-86.323944,570,AL,Alabama,205,CROPWELL,Cropwell,SAINT CLAIR,115,01,6,Y,South,East South Central,03,7543.86,USA,North America,US
21134,33572,t,27.764182,-82.400958,15,FL,Florida,813,APOLLO BEACH,Apollo Beach,HILLSBOROUGH,057,12,5,Y,South,South Atlantic,14,265.4,USA,North America,US
49436,80004,t,39.814772,-105.125552,5674,CO,Colorado,303/720,ARVADA,Arvada,JEFFERSON,059,08,7,Y,West,Mountain,07,342.11,USA,North America,US
19120,30721,t,34.788321,-84.907484,759,GA,Georgia,706/762,DALTON,Dalton,WHITFIELD,313,13,5,Y,South,South Atlantic,14,3623.16,USA,North America,US
43186,70364,t,29.632742,-90.667257,14,LA,Louisiana,985,HOUMA,Houma,TERREBONNE,109,22,6,Y,South,West South Central,01|06,4030.23|4033.89,USA,North America,US
21673,34266,t,27.187045,-81.828782,57,FL,Florida,863,ARCADIA,Arcadia,DE SOTO,027,12,5,Y,South,South Atlantic,16|17,875.33|6369.97,USA,North America,US
18497,30038,t,33.659282,-84.142881,1019,GA,Georgia,770/678/404,LITHONIA,Lithonia,DEKALB,089,13,5,Y,South,South Atlantic,04,496.6,USA,North America,US
54154,91306,t,34.210587,-118.575386,267,CA,California,818/747,WINNETKA,Winnetka,LOS ANGELES,037,06,8,Y,West,Pacific,30,135.94,USA,North America,US
28605,46231,t,39.71254,-86.327688,708,IN,Indiana,317,INDIANAPOLIS,Indianapolis,MARION,097,18,5,Y,Midwest,East North Central,04|07,6352.55|303.84,USA,North America,US
12657,20685,t,38.433231,-76.532714,147,MD,Maryland,410/301,SAINT LEONARD,Saint Leonard,CALVERT,009,24,5,Y,South,South Atlantic,05,1481.24,USA,North America,US
913015,G1P2J7,t,46.802166,-71.322194,83,Québec / Quebec,Québec / Quebec,CA-QC,Québec,Québec,Québec / Quebec,,CA10,,-04:00,,,,,CAN,North America,CA
43491,70804,t,30.4506,-91.1547,60,LA,Louisiana,225,BATON ROUGE,Baton Rouge,EAST BATON ROUGE,033,22,6,Y,South,West South Central,02,1268.48,USA,North America,US
100101,,t,,,,,,,,,,,,,,,,,,CAN,North America,CA
38341,61543,t,40.407947,-89.995487,600,IL,Illinois,309,LIVERPOOL,Liverpool,FULTON,057,17,6,Y,Midwest,East North Central,17,6933.08,USA,North America,US
50995,83554,t,45.758722,-116.217535,3323,ID,Idaho,208,WHITE BIRD,White Bird,IDAHO,049,16,8,Y,West,Mountain,01,39418.02,USA,North America,US
39673,63115,t,38.685786,-90.241188,0,MO,Missouri,314,SAINT LOUIS,Saint Louis,SAINT LOUIS CITY,510,29,6,Y,Midwest,West North Central,01,225.36,USA,North America,US
19384,31302,t,32.127829,-81.34086,42,GA,Georgia,912,BLOOMINGDALE,Bloomingdale,CHATHAM,051,13,5,Y,South,South Atlantic,01,7982.81,USA,North America,US
24529,39110,t,32.50413,-90.092005,224,MS,Mississippi,601,MADISON,Madison,MADISON,089,28,6,Y,South,East South Central,02|03,15551.51|12754.48,USA,North America,US
34039,54981,t,44.31228,-89.130716,868,WI,Wisconsin,715/920,WAUPACA,Waupaca,WAUPACA,135,55,6,Y,Midwest,East North Central,03|06|08,11111.79|4918.39|6806.67,USA,North America,US
54599,92114,t,32.709568,-117.051744,13,CA,California,619,SAN DIEGO,San Diego,SAN DIEGO,073,06,8,Y,West,Pacific,51|53,4791.61|135.43,USA,North America,US
37447,60174,t,41.931912,-88.294852,720,IL,Illinois,630/847,SAINT CHARLES,Saint Charles,KANE,089,17,6,Y,Midwest,East North Central,06|14,378.78|1597.6,USA,North America,US
5601,10452,t,40.837314,-73.922428,65,NY,New York,718/347/646,BRONX,Bronx,BRONX,005,36,5,Y,Northeast,Middle Atlantic,15,14.54,USA,North America,US
24054,38464,t,35.275894,-87.404629,867,TN,Tennessee,931,LAWRENCEBURG,Lawrenceburg,LAWRENCE,099,47,6,Y,South,East South Central,07,9160.44,USA,North America,US
46571,75773,t,32.664157,-95.470416,413,TX,Texas,903/430,MINEOLA,Mineola,WOOD,499,48,6,Y,South,West South Central,01|05,7858.86|5043.85,USA,North America,US
18285,29702,t,35.100616,-81.470938,769,SC,South Carolina,864/803,BLACKSBURG,Blacksburg,CHEROKEE,021,45,5,Y,South,South Atlantic,05,5505.54,USA,North America,US
876206,H2Y2W8,t,45.473038,-73.520305,16,Québec / Quebec,Québec / Quebec,CA-QC,Montréal,Montréal,Montréal / Montreal,,CA10,,-04:00,,,,,CAN,North America,CA
37580,60461,t,41.517042,-87.689034,596,IL,Illinois,708,OLYMPIA FIELDS,Olympia Fields,COOK,031,17,6,Y,Midwest,East North Central,02,1080.67,USA,North America,US
24786,39475,t,31.151744,-89.428556,381,MS,Mississippi,601,PURVIS,Purvis,LAMAR,073,28,6,Y,South,East South Central,04,8044.48,USA,North America,US
51022,83624,t,42.552246,-116.369237,2823,ID,Idaho,208,GRAND VIEW,Grand View,OWYHEE,073,16,7,Y,West,Mountain,01|02,39418.02|43225.09,USA,North America,US
25581,41017,t,39.024098,-84.562706,744,KY,Kentucky,859,FT MITCHELL,Ft Mitchell,KENTON,117,21,5,Y,South,East South Central,04,4382.19,USA,North America,US
23782,38063,t,35.73882,-89.67535,459,TN,Tennessee,731,RIPLEY,Ripley,LAUDERDALE,097,47,6,Y,South,East South Central,08,6850.53,USA,North America,US
100089,,t,,,,,,,,,,,,,,,,,,IRL,Europe,IE
838238,J4W3B3,t,45.47516,-73.47621,16,Québec / Quebec,Québec / Quebec,CA-QC,Brossard,Brossard,Longueuil,,CA10,,-04:00,,,,,CAN,North America,CA
36940,59434,t,48.654499,-113.558425,3698,MT,Montana,406,EAST GLACIER PARK,East Glacier Park,GLACIER,035,30,7,Y,West,Mountain,"","",USA,North America,US
12723,20742,t,38.989984,-76.9421,72,MD,Maryland,301,COLLEGE PARK,College Park,PRINCE GEORGES,033,24,5,Y,South,South Atlantic,05,1481.24,USA,North America,US
46348,75457,t,33.206201,-95.216542,493,TX,Texas,903,MOUNT VERNON,Mount Vernon,FRANKLIN,159,48,6,Y,South,West South Central,04,10122.99,USA,North America,US
54305,91502,t,34.177273,-118.309626,267,CA,California,818,BURBANK,Burbank,LOS ANGELES,037,06,8,Y,West,Pacific,28,218.45,USA,North America,US
21415,33884,t,27.977115,-81.676568,115,FL,Florida,863,WINTER HAVEN,Winter Haven,POLK,105,12,5,Y,South,South Atlantic,10|17,1129.32|6369.97,USA,North America,US
7527,13323,t,43.052754,-75.371051,407,NY,New York,315,CLINTON,Clinton,ONEIDA,065,36,5,Y,Northeast,Middle Atlantic,22,5077.45,USA,North America,US
30040,48197,t,42.201746,-83.621906,802,MI,Michigan,734,YPSILANTI,Ypsilanti,WASHTENAW,161,26,5,Y,Midwest,East North Central,07|12,4227.73|403.21,USA,North America,US
19036,30576,t,34.811204,-83.436919,1925,GA,Georgia,706,TIGER,Tiger,RABUN,241,13,5,Y,South,South Atlantic,09,5210.81,USA,North America,US
12596,20615,t,38.415124,-76.547254,147,MD,Maryland,410,BROOMES ISLAND,Broomes Island,CALVERT,009,24,5,Y,South,South Atlantic,05,1481.24,USA,North America,US
44531,72347,t,35.394436,-90.996815,259,AR,Arkansas,870,HICKORY RIDGE,Hickory Ridge,CROSS,037,05,6,Y,South,West South Central,01,19318.29,USA,North America,US
43028,70062,t,29.987584,-90.252243,5,LA,Louisiana,504,KENNER,Kenner,JEFFERSON,051,22,6,Y,South,West South Central,01|02,4030.23|1268.48,USA,North America,US
940906,J1J3E4,t,45.400409,-71.916145,151,Québec / Quebec,Québec / Quebec,CA-QC,Sherbrooke,Sherbrooke,Sherbrooke,,CA10,,-04:00,,,,,CAN,North America,CA
36533,58580,t,47.349592,-101.939002,1701,ND,North Dakota,701,ZAP,Zap,MERCER,057,38,7,Y,Midwest,West North Central,"","",USA,North America,US
52081,85363,t,33.593394,-112.307151,1082,AZ,Arizona,623,YOUNGTOWN,Youngtown,MARICOPA,013,04,7,N,West,Mountain,08,539.66,USA,North America,US
19208,31005,t,32.513329,-83.575235,337,GA,Georgia,478,BONAIRE,Bonaire,HOUSTON,153,13,5,Y,South,South Atlantic,08,8711.64,USA,North America,US
21443,33909,t,26.696063,-81.938076,10,FL,Florida,239,CAPE CORAL,Cape Coral,LEE,071,12,5,Y,South,South Atlantic,19,750.37,USA,North America,US
6230,11721,t,40.894403,-73.371354,25,NY,New York,631,CENTERPORT,Centerport,SUFFOLK,103,36,5,Y,Northeast,Middle Atlantic,03,254.92,USA,North America,US
43227,70437,t,30.61344,-90.211187,30,LA,Louisiana,985/504,FOLSOM,Folsom,SAINT TAMMANY,103,22,6,Y,South,West South Central,01|05,4030.23|14452.88,USA,North America,US
11228,19003,t,40.002549,-75.300224,83,PA,Pennsylvania,610,ARDMORE,Ardmore,MONTGOMERY,091,42,5,Y,Northeast,Middle Atlantic,02|07,74.14|862.56,USA,North America,US
628520,L9R1V7,t,44.143595,-79.84422,221,Ontario,Ontario,CA-ON,Alliston,Alliston,Simcoe,,CA08,,-04:00,,,,,CAN,North America,CA
53882,90292,t,33.977854,-118.445271,267,CA,California,310/323,MARINA DEL REY,Marina Del Rey,LOS ANGELES,037,06,8,Y,West,Pacific,33|37,288.58|55.26,USA,North America,US
40960,65588,t,37.062299,-91.20232,677,MO,Missouri,573,WINONA,Winona,SHANNON,203,29,6,Y,Midwest,West North Central,08,19901.17,USA,North America,US
18830,30345,t,33.845094,-84.280948,1019,GA,Georgia,404/770/678,ATLANTA,Atlanta,DEKALB,089,13,5,Y,South,South Atlantic,04|05|06,496.6|264.91|298.76,USA,North America,US
36315,58335,t,47.989614,-99.028216,1461,ND,North Dakota,701,FORT TOTTEN,Fort Totten,BENSON,005,38,6,Y,Midwest,West North Central,"","",USA,North America,US
42315,68310,t,40.255302,-96.727921,1247,NE,Nebraska,402,BEATRICE,Beatrice,GAGE,067,31,6,Y,Midwest,West North Central,03,67435.41,USA,North America,US
572821,K1T3T7,t,45.32064,-75.619713,87,Ontario,Ontario,CA-ON,Gloucester,Gloucester,Ottawa,,CA08,,-04:00,,,,,CAN,North America,CA
100029,,t,,,,,,,,,,,,,,,,,,BOL,South America,BO
41740,67060,t,37.543112,-97.36632,1305,KS,Kansas,316,HAYSVILLE,Haysville,SEDGWICK,173,20,6,Y,Midwest,West North Central,04,14315.68,USA,North America,US
526,1238,t,42.287955,-73.206905,1039,MA,Massachusetts,413,LEE,Lee,BERKSHIRE,003,25,5,Y,Northeast,New England,01,2350.29,USA,North America,US
688481,M5V3V9,t,43.639529,-79.391781,132,Ontario,Ontario,CA-ON,Toronto,Toronto,Toronto,,CA08,,-04:00,,,,,CAN,North America,CA
58732,98349,t,47.268116,-122.74143,46,WA,Washington,253,LAKEBAY,Lakebay,PIERCE,053,53,8,Y,West,Pacific,06,6902.73,USA,North America,US
8326,14526,t,43.145695,-77.447352,513,NY,New York,585,PENFIELD,Penfield,MONROE,055,36,5,Y,Northeast,Middle Atlantic,25,510.19,USA,North America,US
19824,32137,t,29.572466,-81.315047,20,FL,Florida,386,PALM COAST,Palm Coast,FLAGLER,035,12,5,Y,South,South Atlantic,06,2506.92,USA,North America,US
43651,71119,t,32.481257,-93.917098,210,LA,Louisiana,318,SHREVEPORT,Shreveport,CADDO,017,22,6,Y,South,West South Central,04,12435.1,USA,North America,US
36558,58638,t,46.853048,-102.025238,1644,ND,North Dakota,701,HEBRON,Hebron,MORTON,059,38,7,Y,Midwest,West North Central,"","",USA,North America,US
8761,15139,t,40.52183,-79.831914,743,PA,Pennsylvania,412,OAKMONT,Oakmont,ALLEGHENY,003,42,5,Y,Northeast,Middle Atlantic,12|14,2163.03|209.29,USA,North America,US
30760,49238,t,41.900371,-83.800024,813,MI,Michigan,517,DEERFIELD,Deerfield,LENAWEE,091,26,5,Y,Midwest,East North Central,07,4227.73,USA,North America,US
7899,13778,t,42.338924,-75.739522,1015,NY,New York,607,GREENE,Greene,CHENANGO,017,36,5,Y,Northeast,Middle Atlantic,22,5077.45,USA,North America,US
55773,93960,t,36.386325,-121.345314,53,CA,California,831/408,SOLEDAD,Soledad,MONTEREY,053,06,8,Y,West,Pacific,20,4874.22,USA,North America,US
52158,85614,t,31.833498,-111.002604,2437,AZ,Arizona,520,GREEN VALLEY,Green Valley,PIMA,019,04,7,N,West,Mountain,02,7838.12,USA,North America,US
1649,3258,t,43.257332,-71.401446,288,NH,New Hampshire,603,CHICHESTER,Chichester,MERRIMACK,013,33,5,Y,Northeast,New England,02,6489,USA,North America,US
37309,60071,t,42.454533,-88.308674,942,IL,Illinois,815,RICHMOND,Richmond,MCHENRY,111,17,6,Y,Midwest,East North Central,14,1597.6,USA,North America,US
59164,98926,t,47.034538,-120.391408,1512,WA,Washington,509,ELLENSBURG,Ellensburg,KITTITAS,037,53,8,Y,West,Pacific,08,7359.7,USA,North America,US
58275,97828,t,45.576664,-117.534056,3756,OR,Oregon,541,ENTERPRISE,Enterprise,WALLOWA,063,41,8,Y,West,Pacific,02,69442.78,USA,North America,US
20100,32446,t,30.861671,-85.218049,117,FL,Florida,850,MARIANNA,Marianna,JACKSON,063,12,6,Y,South,South Atlantic,02,8613.58,USA,North America,US
27068,44077,t,41.712452,-81.202486,677,OH,Ohio,440,PAINESVILLE,Painesville,LAKE,085,39,5,Y,Midwest,East North Central,14,1953.14,USA,North America,US
20458,32903,t,28.107708,-80.580642,18,FL,Florida,321,INDIALANTIC,Indialantic,BREVARD,009,12,5,Y,South,South Atlantic,08,1752.06,USA,North America,US
45601,74112,t,36.147034,-95.904041,735,OK,Oklahoma,918,TULSA,Tulsa,TULSA,143,40,6,Y,South,West South Central,01,1631.67,USA,North America,US
4613,8215,t,39.57123,-74.58939,12,NJ,New Jersey,609/856,EGG HARBOR CITY,Egg Harbor City,ATLANTIC,001,34,5,Y,Northeast,Middle Atlantic,02,2092.43,USA,North America,US
28409,46012,t,40.154339,-85.625772,874,IN,Indiana,765,ANDERSON,Anderson,MADISON,095,18,5,Y,Midwest,East North Central,05|06,1924.76|6206.83,USA,North America,US
54959,92551,t,33.880882,-117.224713,851,CA,California,909,MORENO VALLEY,Moreno Valley,RIVERSIDE,065,06,8,Y,West,Pacific,41,316.54,USA,North America,US
51369,84103,t,40.786378,-111.868935,4260,UT,Utah,801,SALT LAKE CITY,Salt Lake City,SALT LAKE,035,49,7,Y,West,Mountain,02,39987.95,USA,North America,US
45513,74023,t,36.017418,-96.747386,870,OK,Oklahoma,918,CUSHING,Cushing,PAYNE,119,40,6,Y,South,West South Central,03,34116.73,USA,North America,US
632,1463,t,42.665524,-71.599356,40,MA,Massachusetts,978/351,PEPPERELL,Pepperell,MIDDLESEX,017,25,5,Y,Northeast,New England,03,757.86,USA,North America,US
992,2124,t,42.28491,-71.069753,20,MA,Massachusetts,617,DORCHESTER CENTER,Dorchester Center,SUFFOLK,025,25,5,Y,Northeast,New England,07|08,62.67|326.37,USA,North America,US
100000,,t,,,,,,,,,,,,,,,,,,AFG,Asia,AF
23997,38351,t,35.647932,-88.424394,484,TN,Tennessee,731,LEXINGTON,Lexington,HENDERSON,077,47,6,Y,South,East South Central,07|08,9160.44|6850.53,USA,North America,US
48162,78042,t,27.5062,-99.5075,438,TX,Texas,956,LAREDO,Laredo,WEBB,479,48,6,Y,South,West South Central,28,9378.53,USA,North America,US
18588,30116,t,33.546669,-85.008711,1115,GA,Georgia,770/678,CARROLLTON,Carrollton,CARROLL,045,13,5,Y,South,South Atlantic,03,3838.27,USA,North America,US
45076,73112,t,35.518024,-97.574052,1197,OK,Oklahoma,405,OKLAHOMA CITY,Oklahoma City,OKLAHOMA,109,40,6,Y,South,West South Central,05,2073.9,USA,North America,US
21408,33880,t,27.982552,-81.770884,115,FL,Florida,863,WINTER HAVEN,Winter Haven,POLK,105,12,5,Y,South,South Atlantic,10|15|17,1129.32|818.51|6369.97,USA,North America,US
275858,V3S7X1,t,49.122328,-122.729809,103,British Columbia / Colombie Britanique,British Columbia / Colombie Britanique,CA-BC,Surrey,Surrey,Greater Vancouver,,CA02,,-07:00,,,,,CAN,North America,CA
57814,97070,t,45.3085,-122.77941,75,OR,Oregon,503/971,WILSONVILLE,Wilsonville,CLACKAMAS,005,41,8,Y,West,Pacific,01|05,3007|5189.73,USA,North America,US
48712,78660,t,30.441029,-97.59791,501,TX,Texas,512,PFLUGERVILLE,Pflugerville,TRAVIS,453,48,6,Y,South,West South Central,10|17|31,5070.95|7651.16|2154.49,USA,North America,US
53050,88124,t,34.54883,-103.660834,4262,NM,New Mexico,505/575,MELROSE,Melrose,CURRY,009,35,7,Y,West,Mountain,02|03,71739.49|44958.52,USA,North America,US
43986,71601,t,34.196858,-91.904929,215,AR,Arkansas,870,PINE BLUFF,Pine Bluff,JEFFERSON,069,05,6,Y,South,West South Central,01|04,19318.29|22338.08,USA,North America,US
7279,13021,t,42.912872,-76.572442,677,NY,New York,315,AUBURN,Auburn,CAYUGA,011,36,5,Y,Northeast,Middle Atlantic,24,2388.56,USA,North America,US
51083,83702,t,43.664506,-116.164578,2695,ID,Idaho,208,BOISE,Boise,ADA,001,16,7,Y,West,Mountain,02,43225.09,USA,North America,US
57983,97330,t,44.642031,-123.275878,225,OR,Oregon,541,CORVALLIS,Corvallis,BENTON,003,41,8,Y,West,Pacific,04|05,17274.04|5189.73,USA,North America,US
18596,30120,t,34.19193,-84.844584,787,GA,Georgia,770,CARTERSVILLE,Cartersville,BARTOW,015,13,5,Y,South,South Atlantic,11|14,1071.25|3623.16,USA,North America,US
51088,83705,t,43.560609,-116.219837,2695,ID,Idaho,208,BOISE,Boise,ADA,001,16,7,Y,West,Mountain,01|02,39418.02|43225.09,USA,North America,US
37194,59918,t,48.803686,-114.804616,2086,MT,Montana,406,FORTINE,Fortine,LINCOLN,053,30,7,Y,West,Mountain,"","",USA,North America,US
255307,V1M3G4,t,49.184573,-122.66633,21,British Columbia / Colombie Britanique,British Columbia / Colombie Britanique,CA-BC,Langley,Langley,Greater Vancouver,,CA02,,-07:00,,,,,CAN,North America,CA
48128,78004,t,29.858098,-98.534291,1405,TX,Texas,830,BERGHEIM,Bergheim,KENDALL,259,48,6,Y,South,West South Central,21,5920.89,USA,North America,US
53847,90247,t,33.894633,-118.299208,267,CA,California,310/323/424/213/,GARDENA,Gardena,LOS ANGELES,037,06,8,Y,West,Pacific,43,72.03,USA,North America,US
54407,91752,t,33.989521,-117.531614,851,CA,California,951,MIRA LOMA,Mira Loma,RIVERSIDE,065,06,8,Y,West,Pacific,35|41|42,168.88|316.54|935.96,USA,North America,US
40561,64763,t,38.148512,-93.679516,763,MO,Missouri,417,LOWRY CITY,Lowry City,SAINT CLAIR,185,29,6,Y,Midwest,West North Central,04,14401.38,USA,North America,US
11404,19119,t,40.052659,-75.189469,9,PA,Pennsylvania,215,PHILADELPHIA,Philadelphia,PHILADELPHIA,101,42,5,Y,Northeast,Middle Atlantic,02,74.14,USA,North America,US
12620,20639,t,38.610104,-76.598868,147,MD,Maryland,410/301/443,HUNTINGTOWN,Huntingtown,CALVERT,009,24,5,Y,South,South Atlantic,05,1481.24,USA,North America,US
38521,61776,t,40.58436,-88.885611,829,IL,Illinois,309,TOWANDA,Towanda,MCLEAN,113,17,6,Y,Midwest,East North Central,18,10515.95,USA,North America,US
111598,600018,t,,,,TAMIL NADU,TAMIL NADU,,Chennai,,,,,,,,,,,IND,Asia,IN
41273,66111,t,39.086186,-94.792032,771,KS,Kansas,913,KANSAS CITY,Kansas City,WYANDOTTE,209,20,6,Y,Midwest,West North Central,03,757.2,USA,North America,US
41833,67218,t,37.668266,-97.280528,1305,KS,Kansas,316,WICHITA,Wichita,SEDGWICK,173,20,6,Y,Midwest,West North Central,04,14315.68,USA,North America,US
54425,91768,t,34.063498,-117.792198,267,CA,California,909,POMONA,Pomona,LOS ANGELES,037,06,8,Y,West,Pacific,32|35|39,124.23|168.88|204.4,USA,North America,US
19192,30906,t,33.345146,-81.9711,414,GA,Georgia,706,AUGUSTA,Augusta,RICHMOND,245,13,5,Y,South,South Atlantic,12,8185.27,USA,North America,US
5956,11225,t,40.663354,-73.951438,50,NY,New York,718,BROOKLYN,Brooklyn,KINGS,047,36,5,Y,Northeast,Middle Atlantic,09,15.54,USA,North America,US
17601,28753,t,35.880346,-82.703324,1646,NC,North Carolina,828,MARSHALL,Marshall,MADISON,115,37,5,Y,South,South Atlantic,11|13,6838.24|2280.59,USA,North America,US
17002,28204,t,35.213364,-80.8262,721,NC,North Carolina,704,CHARLOTTE,Charlotte,MECKLENBURG,119,37,5,Y,South,South Atlantic,09|12,856.93|549.66,USA,North America,US
40268,64110,t,39.03448,-94.572904,931,MO,Missouri,816,KANSAS CITY,Kansas City,JACKSON,095,29,6,Y,Midwest,West North Central,05,2424.85,USA,North America,US
6661,12204,t,42.6827,-73.730092,30,NY,New York,518,ALBANY,Albany,ALBANY,001,36,5,Y,Northeast,Middle Atlantic,20,1231.28,USA,North America,US
30592,48917,t,42.718871,-84.632335,917,MI,Michigan,517,LANSING,Lansing,EATON,045,26,5,Y,Midwest,East North Central,07|08,4227.73|1503.18,USA,North America,US
44847,72761,t,36.16866,-94.455412,1282,AR,Arkansas,918/479,SILOAM SPRINGS,Siloam Springs,BENTON,007,05,6,Y,South,West South Central,03,5400.99,USA,North America,US
17378,28586,t,35.310312,-77.181617,15,NC,North Carolina,252,VANCEBORO,Vanceboro,CRAVEN,049,37,5,Y,South,South Atlantic,03,7810.08,USA,North America,US
26075,42081,t,37.237018,-88.390916,344,KY,Kentucky,270,SMITHLAND,Smithland,LIVINGSTON,139,21,6,Y,South,East South Central,01,12079.5,USA,North America,US
34300,55343,t,44.913464,-93.411228,812,MN,Minnesota,952/612,HOPKINS,Hopkins,HENNEPIN,053,27,6,Y,Midwest,West North Central,03|05,527.05|135.66,USA,North America,US
16015,26501,t,39.634638,-80.07436,823,WV,West Virginia,304,MORGANTOWN,Morgantown,MONONGALIA,061,54,5,Y,South,South Atlantic,01,6275.56,USA,North America,US
20607,33042,t,24.67502,-81.48491,7,FL,Florida,305,SUMMERLAND KEY,Summerland Key,MONROE,087,12,5,Y,South,South Atlantic,26,2098.66,USA,North America,US
36095,57785,t,44.42894,-103.234082,3440,SD,South Dakota,605,STURGIS,Sturgis,MEADE,093,46,7,Y,Midwest,West North Central,"","",USA,North America,US
22229,35453,t,33.171115,-87.38133,227,AL,Alabama,205,COTTONDALE,Cottondale,TUSCALOOSA,125,01,6,Y,South,East South Central,07,10156.13,USA,North America,US
4863,8759,t,39.955304,-74.364642,40,NJ,New Jersey,732/848,MANCHESTER TOWNSHIP,Manchester Township,OCEAN,029,34,5,Y,Northeast,Middle Atlantic,03|04,899.7|691.88,USA,North America,US
51568,84321,t,41.684168,-111.679568,4499,UT,Utah,435,LOGAN,Logan,CACHE,005,49,7,Y,West,Mountain,01,19560.79,USA,North America,US
21828,34688,t,28.145195,-82.691306,29,FL,Florida,727,TARPON SPRINGS,Tarpon Springs,PINELLAS,103,12,5,Y,South,South Atlantic,12,883.75,USA,North America,US
58814,98405,t,47.248975,-122.472922,46,WA,Washington,253,TACOMA,Tacoma,PIERCE,053,53,8,Y,West,Pacific,06,6902.73,USA,North America,US
56617,95406,t,38.4408,-122.7136,177,CA,California,707,SANTA ROSA,Santa Rosa,SONOMA,097,06,8,Y,West,Pacific,05,1730.82,USA,North America,US
10068,17083,t,40.277614,-76.437722,464,PA,Pennsylvania,717,QUENTIN,Quentin,LEBANON,075,42,5,Y,Northeast,Middle Atlantic,06,860.47,USA,North America,US
3793,6830,t,41.039806,-73.625848,9,CT,Connecticut,203,GREENWICH,Greenwich,FAIRFIELD,001,09,5,Y,Northeast,New England,04,460.73,USA,North America,US
12749,20762,t,38.806108,-76.877177,72,MD,Maryland,301/240,ANDREWS AIR FORCE BASE,Andrews Air Force Base,PRINCE GEORGES,033,24,5,Y,South,South Atlantic,04|05,297.81|1481.24,USA,North America,US
8074,14072,t,43.012364,-78.957902,583,NY,New York,716,GRAND ISLAND,Grand Island,ERIE,029,36,5,Y,Northeast,Middle Atlantic,26,219.13,USA,North America,US
22607,36108,t,32.3375,-86.404014,160,AL,Alabama,334,MONTGOMERY,Montgomery,MONTGOMERY,101,01,6,Y,South,East South Central,02|07,10141.63|10156.13,USA,North America,US
8198,14240,t,42.8885,-78.8246,583,NY,New York,716,BUFFALO,Buffalo,ERIE,029,36,5,Y,Northeast,Middle Atlantic,26,219.13,USA,North America,US
639122,K1C2S5,t,45.474998,-75.551846,88,Ontario,Ontario,CA-ON,Orléans,Orléans,"Stormont, Dundas and Glengarry",,CA08,,-04:00,,,,,CAN,North America,CA
487140,K0H1M0,t,44.319038,-76.541454,124,Ontario,Ontario,CA-ON,Elginburg,Elginburg,Frontenac,,CA08,,-04:00,,,,,CAN,North America,CA
9999,17045,t,40.582556,-77.008231,680,PA,Pennsylvania,717/570,LIVERPOOL,Liverpool,PERRY,099,42,5,Y,Northeast,Middle Atlantic,10,8378.06,USA,North America,US
51350,84092,t,40.561975,-111.80173,4260,UT,Utah,801,SANDY,Sandy,SALT LAKE,035,49,7,Y,West,Mountain,03,20070.54,USA,North America,US
18610,30135,t,33.667396,-84.734631,1209,GA,Georgia,770/678,DOUGLASVILLE,Douglasville,DOUGLAS,097,13,5,Y,South,South Atlantic,03|13,3838.27|714.95,USA,North America,US
56067,94523,t,37.953762,-122.077832,23,CA,California,925,PLEASANT HILL,Pleasant Hill,CONTRA COSTA,013,06,8,Y,West,Pacific,11,493.61,USA,North America,US
37216,59937,t,48.516644,-114.554964,2946,MT,Montana,406,WHITEFISH,Whitefish,FLATHEAD,029,30,7,Y,West,Mountain,"","",USA,North America,US
16634,27704,t,36.039046,-78.831844,394,NC,North Carolina,919,DURHAM,Durham,DURHAM,063,37,5,Y,South,South Atlantic,01|13,5494.28|2280.59,USA,North America,US
25334,40391,t,37.968408,-84.146014,969,KY,Kentucky,859,WINCHESTER,Winchester,CLARK,049,21,5,Y,South,East South Central,06,4292.72,USA,North America,US
976,2114,t,42.36225,-71.067337,20,MA,Massachusetts,617/857,BOSTON,Boston,SUFFOLK,025,25,5,Y,Northeast,New England,07|08,62.67|326.37,USA,North America,US
23865,38139,t,35.081126,-89.760238,273,TN,Tennessee,901,GERMANTOWN,Germantown,SHELBY,157,47,6,Y,South,East South Central,08,6850.53,USA,North America,US
18023,29448,t,33.234784,-80.452543,102,SC,South Carolina,843,HARLEYVILLE,Harleyville,DORCHESTER,035,45,5,Y,South,South Atlantic,06,8062.93,USA,North America,US
757,1701,t,42.323168,-71.435188,40,MA,Massachusetts,508/774/978,FRAMINGHAM,Framingham,MIDDLESEX,017,25,5,Y,Northeast,New England,05,265.08,USA,North America,US
28170,45646,t,39.075877,-83.316052,570,OH,Ohio,740/937,LATHAM,Latham,PIKE,131,39,5,Y,Midwest,East North Central,02,3221.62,USA,North America,US
52242,85715,t,32.252643,-110.82816,2437,AZ,Arizona,520,TUCSON,Tucson,PIMA,019,04,7,N,West,Mountain,02,7838.12,USA,North America,US
58895,98502,t,47.103917,-123.05241,10,WA,Washington,360,OLYMPIA,Olympia,THURSTON,067,53,8,Y,West,Pacific,06|10,6902.73|826.67,USA,North America,US
19126,30728,t,34.694914,-85.232654,823,GA,Georgia,706,LA FAYETTE,La Fayette,WALKER,295,13,5,Y,South,South Atlantic,14,3623.16,USA,North America,US
6071,11423,t,40.718456,-73.767138,46,NY,New York,718,HOLLIS,Hollis,QUEENS,081,36,5,Y,Northeast,Middle Atlantic,05,51.88,USA,North America,US
858181,H9P2X5,t,45.479502,-73.78816,32,Québec / Quebec,Québec / Quebec,CA-QC,Dorval,Dorval,Montréal / Montreal,,CA10,,-04:00,,,,,CAN,North America,CA
9682,16602,t,40.511291,-78.366292,953,PA,Pennsylvania,814,ALTOONA,Altoona,BLAIR,013,42,5,Y,Northeast,Middle Atlantic,09,5730.09,USA,North America,US
913994,G1R4H9,t,46.814641,-71.21083,83,Québec / Quebec,Québec / Quebec,CA-QC,Québec,Québec,Québec / Quebec,,CA10,,-04:00,,,,,CAN,North America,CA
44576,72412,t,36.126716,-90.698844,276,AR,Arkansas,870,BEECH GROVE,Beech Grove,GREENE,055,05,6,Y,South,West South Central,01,19318.29,USA,North America,US
23151,37062,t,35.99135,-87.131607,648,TN,Tennessee,615,FAIRVIEW,Fairview,WILLIAMSON,187,47,6,Y,South,East South Central,05|07,1248.57|9160.44,USA,North America,US
115079,700033,t,,,,WEST BENGAL,WEST BENGAL,,Kolkata,,,,,,,,,,,IND,Asia,IN
13371,21784,t,39.392359,-76.96728,717,MD,Maryland,410/443,SYKESVILLE,Sykesville,CARROLL,013,24,5,Y,South,South Atlantic,01|07|08,3977.06|488.03|859.85,USA,North America,US
34004,54942,t,44.301443,-88.54681,709,WI,Wisconsin,920,GREENVILLE,Greenville,OUTAGAMIE,087,55,6,Y,Midwest,East North Central,08,6806.67,USA,North America,US
52111,85395,t,33.483096,-112.401205,1082,AZ,Arizona,623,GOODYEAR,Goodyear,MARICOPA,013,04,7,N,West,Mountain,08,539.66,USA,North America,US
46189,75229,t,32.89286,-96.864142,463,TX,Texas,214/972/469,DALLAS,Dallas,DALLAS,113,48,6,Y,South,West South Central,24|32|33,262.76|185.66|211.94,USA,North America,US
32856,53048,t,43.58034,-88.450205,924,WI,Wisconsin,920,LOMIRA,Lomira,DODGE,027,55,6,Y,Midwest,East North Central,05|06,1890.75|4918.39,USA,North America,US
44807,72714,t,36.450596,-94.23185,1282,AR,Arkansas,479,BELLA VISTA,Bella Vista,BENTON,007,05,6,Y,South,West South Central,03,5400.99,USA,North America,US
23552,37725,t,35.991886,-83.421049,1000,TN,Tennessee,865,DANDRIDGE,Dandridge,JEFFERSON,089,47,5,Y,South,East South Central,01|02,4141.92|2320.68,USA,North America,US
12006,20060,t,38.895,-77.0367,0,DC,District of Columbia,202,WASHINGTON,Washington,DISTRICT OF COLUMBIA,001,11,5,Y,South,South Atlantic,98,61.40,USA,North America,US
925041,G5M0C6,t,48.45278,-68.500744,11,Québec / Quebec,Québec / Quebec,CA-QC,Rimouski,Rimouski,Rimouski-Neigette,,CA10,,-04:00,,,,,CAN,North America,CA
31645,50310,t,41.628966,-93.661708,805,IA,Iowa,515,DES MOINES,Des Moines,POLK,153,19,6,Y,Midwest,West North Central,03,8789.62,USA,North America,US
30354,48602,t,43.416637,-83.971308,610,MI,Michigan,989,SAGINAW,Saginaw,SAGINAW,145,26,5,Y,Midwest,East North Central,05,2348.7,USA,North America,US
5407,10106,t,40.7668,-73.9822,54,NY,New York,212/646/917/347/,NEW YORK,New York,NEW YORK,061,36,5,Y,Northeast,Middle Atlantic,10,14.25,USA,North America,US
24016,38372,t,35.211786,-88.151844,450,TN,Tennessee,731,SAVANNAH,Savannah,HARDIN,071,47,6,Y,South,East South Central,07,9160.44,USA,North America,US
57233,96093,t,40.744019,-122.954361,2011,CA,California,530,WEAVERVILLE,Weaverville,TRINITY,105,06,8,Y,West,Pacific,02,12952.23,USA,North America,US
55869,94131,t,37.746416,-122.443587,63,CA,California,415/650,SAN FRANCISCO,San Francisco,SAN FRANCISCO,075,06,8,Y,West,Pacific,12|14,38.97|259.5,USA,North America,US
126603,T2E6V6,t,51.086808,-114.008593,1024,Alberta,Alberta,CA-AB,Calgary,Calgary,Calgary,,CA01,,-06:00,,,,,CAN,North America,CA
32293,51577,t,41.455006,-95.212537,986,IA,Iowa,712,WALNUT,Walnut,POTTAWATTAMIE,155,19,6,Y,Midwest,West North Central,03|04,8789.62|22756.75,USA,North America,US
53721,90040,t,33.994062,-118.152349,267,CA,California,323/626/213/714,LOS ANGELES,Los Angeles,LOS ANGELES,037,06,8,Y,West,Pacific,38|40,101.46|57.69,USA,North America,US
10804,18201,t,40.948752,-75.979893,550,PA,Pennsylvania,570,HAZLETON,Hazleton,LUZERNE,079,42,5,Y,Northeast,Middle Atlantic,11,3356.48,USA,North America,US
17582,28739,t,35.252604,-82.533283,2146,NC,North Carolina,828,HENDERSONVILLE,Hendersonville,HENDERSON,089,37,5,Y,South,South Atlantic,11,6838.24,USA,North America,US
49753,80498,t,39.794094,-106.233496,9602,CO,Colorado,970,SILVERTHORNE,Silverthorne,SUMMIT,117,08,7,Y,West,Mountain,02,7535.34,USA,North America,US
35608,57063,t,42.926451,-97.6945,1422,SD,South Dakota,605,TABOR,Tabor,BON HOMME,009,46,6,Y,Midwest,West North Central,"","",USA,North America,US
13563,22181,t,38.904608,-77.295559,447,VA,Virginia,703/571,VIENNA,Vienna,FAIRFAX,059,51,5,Y,South,South Atlantic,10|11,1372.24|185.09,USA,North America,US
16867,28023,t,35.575642,-80.59619,746,NC,North Carolina,704,CHINA GROVE,China Grove,ROWAN,159,37,5,Y,South,South Atlantic,08|12,4512.78|549.66,USA,North America,US
36869,59261,t,48.632704,-107.47901,2248,MT,Montana,406,SACO,Saco,PHILLIPS,071,30,7,Y,West,Mountain,"","",USA,North America,US
11576,19355,t,40.041973,-75.533698,406,PA,Pennsylvania,610/484/215,MALVERN,Malvern,CHESTER,029,42,5,Y,Northeast,Middle Atlantic,06,860.47,USA,North America,US
6335,11793,t,40.67766,-73.512061,107,NY,New York,516/631,WANTAGH,Wantagh,NASSAU,059,36,5,Y,Northeast,Middle Atlantic,02|04,182.01|110.85,USA,North America,US
113453,641006,t,,,,TAMIL NADU,TAMIL NADU,,Coimbatore,,,,,,,,,,,IND,Asia,IN
312,957,t,18.36724,-66.185126,0,PR,Puerto Rico,787,BAYAMON,Bayamon,BAYAMON,021,72,4,N,"","","","",USA,North America,US
50291,81235,t,37.784971,-107.295986,8658,CO,Colorado,970,LAKE CITY,Lake City,HINSDALE,053,08,7,Y,West,Mountain,03,49731.77,USA,North America,US
44484,72223,t,34.796793,-92.515202,264,AR,Arkansas,501,LITTLE ROCK,Little Rock,PULASKI,119,05,6,Y,South,West South Central,02,4978.12,USA,North America,US
903624,G2G1G5,t,46.791035,-71.358188,50,Québec / Quebec,Québec / Quebec,CA-QC,L'Ancienne-Lorette,L'Ancienne-Lorette,Québec / Quebec,,CA10,,-04:00,,,,,CAN,North America,CA
50740,83204,t,42.759759,-112.521357,4462,ID,Idaho,208,POCATELLO,Pocatello,BANNOCK,005,16,7,Y,West,Mountain,02,43225.09,USA,North America,US
25579,41016,t,39.086322,-84.548116,744,KY,Kentucky,859,COVINGTON,Covington,KENTON,117,21,5,Y,South,East South Central,04,4382.19,USA,North America,US
29991,48157,t,41.815512,-83.434014,593,MI,Michigan,734,LUNA PIER,Luna Pier,MONROE,115,26,5,Y,Midwest,East North Central,07,4227.73,USA,North America,US
21087,33510,t,27.95828,-82.295234,15,FL,Florida,813,BRANDON,Brandon,HILLSBOROUGH,057,12,5,Y,South,South Atlantic,14|15,265.4|818.51,USA,North America,US
877200,H3C1J9,t,45.513899,-73.550487,16,Québec / Quebec,Québec / Quebec,CA-QC,Montréal,Montréal,Montréal / Montreal,,CA10,,-04:00,,,,,CAN,North America,CA
8173,14218,t,42.81554,-78.817302,583,NY,New York,716,BUFFALO,Buffalo,ERIE,029,36,5,Y,Northeast,Middle Atlantic,26|27,219.13|3973.13,USA,North America,US
14170,23229,t,37.593879,-77.5748,18,VA,Virginia,804,HENRICO,Henrico,HENRICO,087,51,5,Y,South,South Atlantic,07,2776.39,USA,North America,US
51978,85253,t,33.545998,-111.969375,1082,AZ,Arizona,480/602,PARADISE VALLEY,Paradise Valley,MARICOPA,013,04,7,N,West,Mountain,06|09,625.07|164.79,USA,North America,US
19444,31416,t,32.0836,-81.1003,42,GA,Georgia,912,SAVANNAH,Savannah,CHATHAM,051,13,5,Y,South,South Atlantic,01,7982.81,USA,North America,US
1109,2303,t,42.0834,-71.0188,50,MA,Massachusetts,508,BROCKTON,Brockton,PLYMOUTH,023,25,5,Y,Northeast,New England,08,326.37,USA,North America,US
30093,48237,t,42.466815,-83.177805,943,MI,Michigan,248/313/586/734,OAK PARK,Oak Park,OAKLAND,125,26,5,Y,Midwest,East North Central,09|14,183.59|185.73,USA,North America,US
923703,G5L1M8,t,48.463941,-68.517663,11,Québec / Quebec,Québec / Quebec,CA-QC,Rimouski,Rimouski,Rimouski-Neigette,,CA10,,-04:00,,,,,CAN,North America,CA
13724,22508,t,38.311255,-77.783957,521,VA,Virginia,540,LOCUST GROVE,Locust Grove,ORANGE,137,51,5,Y,South,South Atlantic,07,2776.39,USA,North America,US
649971,M8X1A3,t,43.65272,-79.480518,90,Ontario,Ontario,CA-ON,Etobicoke,Etobicoke,Toronto,,CA08,,-04:00,,,,,CAN,North America,CA
47771,77437,t,29.195521,-96.219771,111,TX,Texas,979,EL CAMPO,El Campo,WHARTON,481,48,6,Y,South,West South Central,27,9128.25,USA,North America,US
12805,20814,t,39.004804,-77.102477,508,MD,Maryland,301/240/202,BETHESDA,Bethesda,MONTGOMERY,031,24,5,Y,South,South Atlantic,08,859.85,USA,North America,US
18553,30088,t,33.756882,-84.17504,1019,GA,Georgia,770/404/678,STONE MOUNTAIN,Stone Mountain,DEKALB,089,13,5,Y,South,South Atlantic,04,496.6,USA,North America,US
2550,4915,t,44.469266,-69.056691,103,ME,Maine,207,BELFAST,Belfast,WALDO,027,23,5,Y,Northeast,New England,02,27557.4,USA,North America,US
20113,32459,t,30.361486,-86.159116,193,FL,Florida,850,SANTA ROSA BEACH,Santa Rosa Beach,WALTON,131,12,6,Y,South,South Atlantic,01,4016.3,USA,North America,US
422273,B1L1B6,t,46.126751,-60.250581,88,Nova Scotia / Nouvelle-Écosse,Nova Scotia / Nouvelle-Écosse,CA-NS,Sydney,Sydney,Cape Breton,,CA07,,-03:00,,,,,CAN,North America,CA
1555,3049,t,42.752872,-71.583438,169,NH,New Hampshire,603,HOLLIS,Hollis,HILLSBOROUGH,011,33,5,Y,Northeast,New England,02,6489,USA,North America,US
29885,48066,t,42.509668,-82.935955,602,MI,Michigan,586/248,ROSEVILLE,Roseville,MACOMB,099,26,5,Y,Midwest,East North Central,09,183.59,USA,North America,US
10377,17545,t,40.169738,-76.438133,357,PA,Pennsylvania,717,MANHEIM,Manheim,LANCASTER,071,42,5,Y,Northeast,Middle Atlantic,06|15|16|17,860.47|1285.03|997.68|1733.22,USA,North America,US
639830,K0C2A0,t,45.107913,-74.815023,75,Ontario,Ontario,CA-ON,St. Andrews West,St. Andrews West,"Stormont, Dundas and Glengarry",,CA08,,-04:00,,,,,CAN,North America,CA
739,1605,t,42.288915,-71.79578,475,MA,Massachusetts,508,WORCESTER,Worcester,WORCESTER,027,25,5,Y,Northeast,New England,02,1628,USA,North America,US
23737,38017,t,35.091114,-89.658597,273,TN,Tennessee,901,COLLIERVILLE,Collierville,SHELBY,157,47,6,Y,South,East South Central,08,6850.53,USA,North America,US
33930,54856,t,46.39747,-91.123412,654,WI,Wisconsin,715,MASON,Mason,BAYFIELD,007,55,6,Y,Midwest,East North Central,07,23037.26,USA,North America,US
45889,74820,t,34.822748,-96.753003,1010,OK,Oklahoma,580,ADA,Ada,PONTOTOC,123,40,6,Y,South,West South Central,04,9777.28,USA,North America,US
37222,60005,t,42.058437,-87.983562,596,IL,Illinois,847/630/224,ARLINGTON HEIGHTS,Arlington Heights,COOK,031,17,6,Y,Midwest,East North Central,08|09,205.52|105.35,USA,North America,US
5308,10008,t,40.7144,-74.0065,54,NY,New York,212,NEW YORK,New York,NEW YORK,061,36,5,Y,Northeast,Middle Atlantic,10,14.25,USA,North America,US
31882,50583,t,42.450142,-94.982689,1196,IA,Iowa,712,SAC CITY,Sac City,SAC,161,19,6,Y,Midwest,West North Central,04,22756.75,USA,North America,US
28313,45822,t,40.538649,-84.62867,874,OH,Ohio,419/567,CELINA,Celina,MERCER,107,39,5,Y,Midwest,East North Central,04|05|08,4664.87|5626.47|2450.49,USA,North America,US
100273,110024,t,,,,DELHI,DELHI,,South Delhi,,,,,,,,,,,IND,Asia,IN
26425,43065,t,40.17696,-83.094612,900,OH,Ohio,614/740,POWELL,Powell,DELAWARE,041,39,5,Y,Midwest,East North Central,12,2271.91,USA,North America,US
7448,13204,t,43.0558,-76.176034,398,NY,New York,315,SYRACUSE,Syracuse,ONONDAGA,067,36,5,Y,Northeast,Middle Atlantic,24,2388.56,USA,North America,US
19368,31210,t,32.897475,-83.753591,334,GA,Georgia,478,MACON,Macon,BIBB,021,13,5,Y,South,South Atlantic,02|08,9626.23|8711.64,USA,North America,US
100115,,t,,,,,,,,,,,,,,,,,,KOR,Asia,KR
10490,17754,t,41.320778,-76.876868,528,PA,Pennsylvania,570,MONTOURSVILLE,Montoursville,LYCOMING,081,42,5,Y,Northeast,Middle Atlantic,10,8378.06,USA,North America,US
3018,5701,t,43.639036,-72.922874,648,VT,Vermont,802,RUTLAND,Rutland,RUTLAND,021,50,5,Y,Northeast,New England,"","",USA,North America,US
6150,11561,t,40.589516,-73.640784,107,NY,New York,516,LONG BEACH,Long Beach,NASSAU,059,36,5,Y,Northeast,Middle Atlantic,04,110.85,USA,North America,US
57822,97080,t,45.470682,-122.379236,29,OR,Oregon,503,GRESHAM,Gresham,MULTNOMAH,051,41,8,Y,West,Pacific,03,1074.46,USA,North America,US
575855,K2E7T8,t,45.333411,-75.708934,111,Ontario,Ontario,CA-ON,Nepean,Nepean,Ottawa,,CA08,,-04:00,,,,,CAN,North America,CA
744882,J2L3N3,t,45.327688,-72.671669,124,Québec / Quebec,Québec / Quebec,CA-QC,Bromont,Bromont,Brome-Missisquoi,,CA10,,-04:00,,,,,CAN,North America,CA
721602,L3Y8V9,t,44.08084,-79.430733,222,Ontario,Ontario,CA-ON,Newmarket,Newmarket,York,,CA08,,-04:00,,,,,CAN,North America,CA
30706,49094,t,42.059075,-85.11405,969,MI,Michigan,517,UNION CITY,Union City,BRANCH,023,26,5,Y,Midwest,East North Central,03|07,2628.74|4227.73,USA,North America,US
6021,11371,t,40.775497,-73.870857,46,NY,New York,914,FLUSHING,Flushing,QUEENS,081,36,5,Y,Northeast,Middle Atlantic,14,28.29,USA,North America,US
37910,60963,t,40.34318,-87.691931,597,IL,Illinois,217,ROSSVILLE,Rossville,VERMILION,183,17,6,Y,Midwest,East North Central,15,14695.67,USA,North America,US
43447,70755,t,30.59259,-91.525523,32,LA,Louisiana,225,LIVONIA,Livonia,POINTE COUPEE,077,22,6,Y,South,West South Central,06,4033.89,USA,North America,US
18504,30045,t,33.9348,-83.953589,1031,GA,Georgia,770/678/404,LAWRENCEVILLE,Lawrenceville,GWINNETT,135,13,5,Y,South,South Atlantic,07|10,392.61|7096.22,USA,North America,US
48317,78238,t,29.473788,-98.612205,675,TX,Texas,210,SAN ANTONIO,San Antonio,BEXAR,029,48,6,Y,South,West South Central,20,199.68,USA,North America,US
21305,33756,t,27.946056,-82.794788,29,FL,Florida,727,CLEARWATER,Clearwater,PINELLAS,103,12,5,Y,South,South Atlantic,13,186.03,USA,North America,US
53510,89423,t,38.977004,-119.578285,4721,NV,Nevada,775,MINDEN,Minden,DOUGLAS,005,32,8,Y,West,Mountain,02,55829.71,USA,North America,US
11317,19064,t,39.932544,-75.342975,210,PA,Pennsylvania,610,SPRINGFIELD,Springfield,DELAWARE,045,42,5,Y,Northeast,Middle Atlantic,01|07,77.91|862.56,USA,North America,US
21002,33426,t,26.527854,-80.080323,21,FL,Florida,561,BOYNTON BEACH,Boynton Beach,PALM BEACH,099,12,5,Y,South,South Atlantic,20|22,2427.42|172.88,USA,North America,US
53875,90277,t,33.830793,-118.387452,267,CA,California,310,REDONDO BEACH,Redondo Beach,LOS ANGELES,037,06,8,Y,West,Pacific,33,288.58,USA,North America,US
8589,14860,t,42.587223,-76.838801,703,NY,New York,607,LODI,Lodi,SENECA,099,36,5,Y,Northeast,Middle Atlantic,23,7371.65,USA,North America,US
51269,84040,t,41.076106,-111.892207,4302,UT,Utah,801,LAYTON,Layton,DAVIS,011,49,7,Y,West,Mountain,01,19560.79,USA,North America,US
32926,53119,t,42.889684,-88.485878,821,WI,Wisconsin,262,EAGLE,Eagle,WAUKESHA,133,55,6,Y,Midwest,East North Central,01|05,1727.92|1890.75,USA,North America,US
15009,24598,t,36.620617,-78.790324,474,VA,Virginia,434,VIRGILINA,Virgilina,HALIFAX,083,51,5,Y,South,South Atlantic,05,10029.79,USA,North America,US
22434,35816,t,34.742266,-86.629628,610,AL,Alabama,256,HUNTSVILLE,Huntsville,MADISON,089,01,6,Y,South,East South Central,05,3677.31,USA,North America,US
8622,14895,t,42.091074,-77.941625,1418,NY,New York,585/607,WELLSVILLE,Wellsville,ALLEGANY,003,36,5,Y,Northeast,Middle Atlantic,23,7371.65,USA,North America,US
889734,H9K1S5,t,45.458551,-73.901362,21,Québec / Quebec,Québec / Quebec,CA-QC,Pierrefonds,Pierrefonds,Montréal / Montreal,,CA10,,-04:00,,,,,CAN,North America,CA
48815,78756,t,30.320523,-97.73745,501,TX,Texas,512,AUSTIN,Austin,TRAVIS,453,48,6,Y,South,West South Central,10|25,5070.95|7620.7,USA,North America,US
28546,46171,t,39.538564,-86.952716,767,IN,Indiana,765/812,REELSVILLE,Reelsville,PUTNAM,133,18,5,Y,Midwest,East North Central,04,6352.55,USA,North America,US
49836,80631,t,40.436074,-104.681342,4664,CO,Colorado,970,GREELEY,Greeley,WELD,123,08,7,Y,West,Mountain,04,38102.67,USA,North America,US
47683,77357,t,30.150131,-95.181081,213,TX,Texas,281/832,NEW CANEY,New Caney,MONTGOMERY,339,48,6,Y,South,West South Central,02|08|36,308.75|6053.76|7125.83,USA,North America,US
45091,73118,t,35.518936,-97.529841,1197,OK,Oklahoma,405,OKLAHOMA CITY,Oklahoma City,OKLAHOMA,109,40,6,Y,South,West South Central,05,2073.9,USA,North America,US
814614,G7J1H4,t,48.429177,-71.05914,62,Québec / Quebec,Québec / Quebec,CA-QC,Chicoutimi,Chicoutimi,Le Saguenay-et-son-Fjord,,CA10,,-04:00,,,,,CAN,North America,CA
834354,G6V9J3,t,46.770385,-71.1716,28,Québec / Quebec,Québec / Quebec,CA-QC,Lévis,Lévis,Lévis,,CA10,,-04:00,,,,,CAN,North America,CA
53792,90081,t,34.0522,-118.2429,267,CA,California,213/310/323,LOS ANGELES,Los Angeles,LOS ANGELES,037,06,8,Y,West,Pacific,34,47.66,USA,North America,US
902718,G3L4A9,t,46.881068,-71.834419,136,Québec / Quebec,Québec / Quebec,CA-QC,Saint-Raymond,Saint-Raymond,Portneuf,,CA10,,-04:00,,,,,CAN,North America,CA
50650,82801,t,44.805878,-106.836869,3724,WY,Wyoming,307,SHERIDAN,Sheridan,SHERIDAN,033,56,7,Y,West,Mountain,"","",USA,North America,US
58607,98240,t,48.946096,-122.617074,60,WA,Washington,360,CUSTER,Custer,WHATCOM,073,53,8,Y,West,Pacific,01,6186.47,USA,North America,US
55222,93021,t,34.304492,-118.859918,116,CA,California,805,MOORPARK,Moorpark,VENTURA,111,06,8,Y,West,Pacific,26,939.12,USA,North America,US
59391,99338,t,46.082917,-119.37583,661,WA,Washington,509,KENNEWICK,Kennewick,BENTON,005,53,8,Y,West,Pacific,04,19250.22,USA,North America,US
11075,18704,t,41.28117,-75.900648,550,PA,Pennsylvania,570,KINGSTON,Kingston,LUZERNE,079,42,5,Y,Northeast,Middle Atlantic,11,3356.48,USA,North America,US
48489,78418,t,27.643602,-97.248616,35,TX,Texas,361,CORPUS CHRISTI,Corpus Christi,NUECES,355,48,6,Y,South,West South Central,27,9128.25,USA,North America,US
481008,N8T3M4,t,42.312073,-82.937654,180,Ontario,Ontario,CA-ON,Windsor,Windsor,Essex,,CA08,,-04:00,,,,,CAN,North America,CA
59110,98831,t,47.936954,-120.11896,645,WA,Washington,509,MANSON,Manson,CHELAN,007,53,8,Y,West,Pacific,08,7359.7,USA,North America,US
22518,36022,t,32.610801,-86.420152,177,AL,Alabama,334,DEATSVILLE,Deatsville,ELMORE,051,01,6,Y,South,East South Central,02,10141.63,USA,North America,US
40210,64058,t,39.182404,-94.313386,931,MO,Missouri,816,INDEPENDENCE,Independence,JACKSON,095,29,6,Y,Midwest,West North Central,05|06,2424.85|18198.62,USA,North America,US
16021,26505,t,39.649574,-79.945822,823,WV,West Virginia,304,MORGANTOWN,Morgantown,MONONGALIA,061,54,5,Y,South,South Atlantic,01,6275.56,USA,North America,US
6167,11572,t,40.634438,-73.638572,107,NY,New York,516,OCEANSIDE,Oceanside,NASSAU,059,36,5,Y,Northeast,Middle Atlantic,04,110.85,USA,North America,US
37074,59730,t,45.348288,-111.26992,4810,MT,Montana,406,GALLATIN GATEWAY,Gallatin Gateway,GALLATIN,031,30,7,Y,West,Mountain,"","",USA,North America,US
18855,30361,t,33.7496,-84.3877,1050,GA,Georgia,404/678,ATLANTA,Atlanta,FULTON,121,13,5,Y,South,South Atlantic,05,264.91,USA,North America,US
12078,20115,t,38.837836,-77.898614,600,VA,Virginia,540,MARSHALL,Marshall,FAUQUIER,061,51,5,Y,South,South Atlantic,05,10029.79,USA,North America,US
51856,85035,t,33.472932,-112.194796,1082,AZ,Arizona,623/602,PHOENIX,Phoenix,MARICOPA,013,04,7,N,West,Mountain,03|07,15688.79|205.12,USA,North America,US
46014,75034,t,33.150307,-96.879615,662,TX,Texas,972/469/214,FRISCO,Frisco,DENTON,121,48,6,Y,South,West South Central,03|26,480.88|907.15,USA,North America,US
49435,80003,t,39.828792,-105.058264,5674,CO,Colorado,303/720,ARVADA,Arvada,JEFFERSON,059,08,7,Y,West,Mountain,07,342.11,USA,North America,US
41722,67042,t,37.846492,-96.757746,1344,KS,Kansas,316/620,EL DORADO,El Dorado,BUTLER,015,20,6,Y,Midwest,West North Central,04,14315.68,USA,North America,US
50677,82930,t,41.288046,-110.762499,6749,WY,Wyoming,307,EVANSTON,Evanston,UINTA,041,56,7,Y,West,Mountain,01,19560.79,USA,North America,US
47618,77301,t,30.303958,-95.431288,213,TX,Texas,936,CONROE,Conroe,MONTGOMERY,339,48,6,Y,South,West South Central,08,6053.76,USA,North America,US
36193,58104,t,46.796663,-96.882706,901,ND,North Dakota,701,FARGO,Fargo,CASS,017,38,6,Y,Midwest,West North Central,"","",USA,North America,US
56307,95005,t,37.1018,-122.09925,17,CA,California,831/408,BEN LOMOND,Ben Lomond,SANTA CRUZ,087,06,8,Y,West,Pacific,18,696.12,USA,North America,US
24516,39090,t,33.003518,-89.50293,430,MS,Mississippi,662,KOSCIUSKO,Kosciusko,ATTALA,007,28,6,Y,South,East South Central,02,15551.51,USA,North America,US
16761,27890,t,36.411282,-77.5906,133,NC,North Carolina,252,WELDON,Weldon,HALIFAX,083,37,5,Y,South,South Atlantic,01,5494.28,USA,North America,US
8168,14215,t,42.933362,-78.809134,583,NY,New York,716,BUFFALO,Buffalo,ERIE,029,36,5,Y,Northeast,Middle Atlantic,26,219.13,USA,North America,US
277,927,t,18.38759,-66.072006,0,PR,Puerto Rico,787,SAN JUAN,San Juan,SAN JUAN,127,72,4,N,"","","","",USA,North America,US
24754,39441,t,31.6937,-89.1308,258,MS,Mississippi,601,LAUREL,Laurel,JONES,067,28,6,Y,South,East South Central,04,8044.48,USA,North America,US
416958,X1A3C5,t,62.445471,-114.370248,182,Northwest Territories / Territoires du Nord-Ouest,Northwest Territories / Territoires du Nord-Ouest,CA-NT,Yellowknife,Yellowknife,Region 6,,CA13,,-06:00,,,,,CAN,North America,CA
46441,75604,t,32.522112,-94.832536,339,TX,Texas,903/430,LONGVIEW,Longview,GREGG,183,48,6,Y,South,West South Central,01|04,7858.86|10122.99,USA,North America,US
198678,T4L2N1,t,52.447937,-113.900649,846,Alberta,Alberta,CA-AB,Lacombe,Lacombe,Red Deer,,CA01,,-06:00,,,,,CAN,North America,CA
48269,78205,t,29.424324,-98.487124,675,TX,Texas,210,SAN ANTONIO,San Antonio,BEXAR,029,48,6,Y,South,West South Central,23|35,58059.18|593.77,USA,North America,US
36980,59477,t,47.430211,-111.969028,3334,MT,Montana,406,SIMMS,Simms,CASCADE,013,30,7,Y,West,Mountain,"","",USA,North America,US
27426,44514,t,41.002184,-80.619386,841,OH,Ohio,330,YOUNGSTOWN,Youngstown,MAHONING,099,39,5,Y,Midwest,East North Central,06|13,7215.03|894.3,USA,North America,US
48795,78742,t,30.239882,-97.658059,501,TX,Texas,512,AUSTIN,Austin,TRAVIS,453,48,6,Y,South,West South Central,35,593.77,USA,North America,US
4180,7632,t,40.882714,-73.947163,22,NJ,New Jersey,201,ENGLEWOOD CLIFFS,Englewood Cliffs,BERGEN,003,34,5,Y,Northeast,Middle Atlantic,09,95.34,USA,North America,US
51317,84070,t,40.576888,-111.895178,4260,UT,Utah,801,SANDY,Sandy,SALT LAKE,035,49,7,Y,West,Mountain,03|04,20070.54|2550.35,USA,North America,US
3686,6615,t,41.173882,-73.136492,9,CT,Connecticut,203,STRATFORD,Stratford,FAIRFIELD,001,09,5,Y,Northeast,New England,03,470.34,USA,North America,US
46206,75246,t,32.793243,-96.772887,463,TX,Texas,214,DALLAS,Dallas,DALLAS,113,48,6,Y,South,West South Central,30|32,356.27|185.66,USA,North America,US
21372,33843,t,27.728732,-81.403172,115,FL,Florida,863,FROSTPROOF,Frostproof,POLK,105,12,5,Y,South,South Atlantic,17,6369.97,USA,North America,US
49457,80020,t,39.920899,-105.077006,0,CO,Colorado,303/720,BROOMFIELD,Broomfield,BROOMFIELD,014,08,7,Y,West,Mountain,02|07,7535.34|342.11,USA,North America,US
54126,91202,t,34.169903,-118.266327,267,CA,California,818,GLENDALE,Glendale,LOS ANGELES,037,06,8,Y,West,Pacific,28,218.45,USA,North America,US
46125,75150,t,32.8199,-96.635135,463,TX,Texas,972/214,MESQUITE,Mesquite,DALLAS,113,48,6,Y,South,West South Central,05|32,5043.85|185.66,USA,North America,US
1497,2895,t,41.997922,-71.498851,11,RI,Rhode Island,401,WOONSOCKET,Woonsocket,PROVIDENCE,007,44,5,Y,Northeast,New England,01,268.49,USA,North America,US
8762,15140,t,40.409696,-79.77642,743,PA,Pennsylvania,412,PITCAIRN,Pitcairn,ALLEGHENY,003,42,5,Y,Northeast,Middle Atlantic,14,209.29,USA,North America,US
56109,94558,t,38.52972,-122.279498,17,CA,California,707,NAPA,Napa,NAPA,055,06,8,Y,West,Pacific,03|05,6183.59|1730.82,USA,North America,US
40039,63755,t,37.438622,-89.631291,429,MO,Missouri,573,JACKSON,Jackson,CAPE GIRARDEAU,031,29,6,Y,Midwest,West North Central,08,19901.17,USA,North America,US
53776,90071,t,34.052456,-118.255309,267,CA,California,213/323/626/818/,LOS ANGELES,Los Angeles,LOS ANGELES,037,06,8,Y,West,Pacific,34,47.66,USA,North America,US
45007,73051,t,35.022457,-97.256858,1165,OK,Oklahoma,405,LEXINGTON,Lexington,CLEVELAND,027,40,6,Y,South,West South Central,04,9777.28,USA,North America,US
57146,96014,t,41.355668,-122.738418,2635,CA,California,530,CALLAHAN,Callahan,SISKIYOU,093,06,8,Y,West,Pacific,01,28089.47,USA,North America,US
2054,4092,t,43.693678,-70.355356,26,ME,Maine,207,WESTBROOK,Westbrook,CUMBERLAND,005,23,5,Y,Northeast,New England,01,3285.52,USA,North America,US
920,2019,t,42.076452,-71.472236,120,MA,Massachusetts,508/774,BELLINGHAM,Bellingham,NORFOLK,021,25,5,Y,Northeast,New England,02|04,1628|668.27,USA,North America,US
48660,78626,t,30.661806,-97.581358,442,TX,Texas,512,GEORGETOWN,Georgetown,WILLIAMSON,491,48,6,Y,South,West South Central,31,2154.49,USA,North America,US
21009,33433,t,26.348213,-80.158518,21,FL,Florida,561,BOCA RATON,Boca Raton,PALM BEACH,099,12,5,Y,South,South Atlantic,21|22,260.97|172.88,USA,North America,US
16908,28079,t,35.111471,-80.609882,576,NC,North Carolina,704,INDIAN TRAIL,Indian Trail,UNION,179,37,5,Y,South,South Atlantic,08|09,4512.78|856.93,USA,North America,US
42211,68057,t,41.65525,-96.713472,1195,NE,Nebraska,402,SCRIBNER,Scribner,DODGE,053,31,6,Y,Midwest,West North Central,01,8879.02,USA,North America,US
53877,90280,t,33.938527,-118.190404,267,CA,California,323/562/213/310,SOUTH GATE,South Gate,LOS ANGELES,037,06,8,Y,West,Pacific,40|44,57.69|79.36,USA,North America,US
100165,,t,,,,,,,,,,,,,,,,,,OMN,Asia,OM
50237,81137,t,37.107386,-107.631608,6523,CO,Colorado,970,IGNACIO,Ignacio,LA PLATA,067,08,7,Y,West,Mountain,03,49731.77,USA,North America,US
17026,28227,t,35.185389,-80.649343,721,NC,North Carolina,704,CHARLOTTE,Charlotte,MECKLENBURG,119,37,5,Y,South,South Atlantic,02|08|09|12,3246.68|4512.78|856.93|549.66,USA,North America,US
22956,36660,t,30.6945,-88.0431,8,AL,Alabama,251,MOBILE,Mobile,MOBILE,097,01,6,Y,South,East South Central,01,6066.83,USA,North America,US
430,1073,t,42.230586,-72.741034,140,MA,Massachusetts,413,SOUTHAMPTON,Southampton,HAMPSHIRE,015,25,5,Y,Northeast,New England,01,2350.29,USA,North America,US
4283,7753,t,40.216897,-74.074201,178,NJ,New Jersey,732,NEPTUNE,Neptune,MONMOUTH,025,34,5,Y,Northeast,Middle Atlantic,04|06,691.88|215.55,USA,North America,US
42698,68850,t,40.847667,-99.73027,2389,NE,Nebraska,308,LEXINGTON,Lexington,DAWSON,047,31,6,Y,Midwest,West North Central,03,67435.41,USA,North America,US
54461,91910,t,32.635694,-117.052566,13,CA,California,619/858,CHULA VISTA,Chula Vista,SAN DIEGO,073,06,8,Y,West,Pacific,51|53,4791.61|135.43,USA,North America,US
18238,29651,t,34.946178,-82.231214,970,SC,South Carolina,864,GREER,Greer,GREENVILLE,045,45,5,Y,South,South Atlantic,04,1299.3,USA,North America,US
41313,66210,t,38.924532,-94.70487,1040,KS,Kansas,913/816,OVERLAND PARK,Overland Park,JOHNSON,091,20,6,Y,Midwest,West North Central,03,757.2,USA,North America,US
27109,44109,t,41.44465,-81.695784,582,OH,Ohio,216,CLEVELAND,Cleveland,CUYAHOGA,035,39,5,Y,Midwest,East North Central,09|11,464.65|244.46,USA,North America,US
2049,4087,t,43.565926,-70.741487,266,ME,Maine,207,WATERBORO,Waterboro,YORK,031,23,5,Y,Northeast,New England,01,3285.52,USA,North America,US
21117,33548,t,28.142038,-82.481823,15,FL,Florida,813,LUTZ,Lutz,HILLSBOROUGH,057,12,5,Y,South,South Atlantic,12|15,883.75|818.51,USA,North America,US
32815,53005,t,43.060583,-88.096595,821,WI,Wisconsin,262/414,BROOKFIELD,Brookfield,WAUKESHA,133,55,6,Y,Midwest,East North Central,05,1890.75,USA,North America,US
21019,33441,t,26.31095,-80.098325,7,FL,Florida,954,DEERFIELD BEACH,Deerfield Beach,BROWARD,011,12,5,Y,South,South Atlantic,20|22,2427.42|172.88,USA,North America,US
189742,T8V3J8,t,55.167459,-118.830912,660,Alberta,Alberta,CA-AB,Grande Prairie,Grande Prairie,Grande Prairie,,CA01,,-06:00,,,,,CAN,North America,CA
255,917,t,18.421194,-66.049352,0,PR,Puerto Rico,787,SAN JUAN,San Juan,SAN JUAN,127,72,4,N,"","","","",USA,North America,US
17986,29417,t,32.7765,-79.9312,118,SC,South Carolina,843,CHARLESTON,Charleston,CHARLESTON,019,45,5,Y,South,South Atlantic,01,1547.86,USA,North America,US
49154,79413,t,33.546352,-101.888651,3202,TX,Texas,806,LUBBOCK,Lubbock,LUBBOCK,303,48,6,Y,South,West South Central,19,25835.59,USA,North America,US
41315,66211,t,38.925578,-94.638286,1040,KS,Kansas,913,LEAWOOD,Leawood,JOHNSON,091,20,6,Y,Midwest,West North Central,03,757.2,USA,North America,US
18775,30315,t,33.706736,-84.37952,1050,GA,Georgia,404/770/678,ATLANTA,Atlanta,FULTON,121,13,5,Y,South,South Atlantic,05,264.91,USA,North America,US
41879,67357,t,37.32453,-95.255391,900,KS,Kansas,620,PARSONS,Parsons,LABETTE,099,20,6,Y,Midwest,West North Central,02,14143.34,USA,North America,US
34605,55731,t,47.935632,-91.791524,0,MN,Minnesota,218,ELY,Ely,SAINT LOUIS,137,27,6,Y,Midwest,West North Central,08,27908.13,USA,North America,US
29715,47901,t,40.417615,-86.887842,549,IN,Indiana,765,LAFAYETTE,Lafayette,TIPPECANOE,157,18,5,Y,Midwest,East North Central,04,6352.55,USA,North America,US
19879,32204,t,30.314597,-81.6816,8,FL,Florida,904,JACKSONVILLE,Jacksonville,DUVAL,031,12,5,Y,South,South Atlantic,04|05,1875.97|1355.03,USA,North America,US
405052,A0E2V0,t,46.919787,-55.396159,48,Newfoundland & Labrador / Terre-Neuve-et-Labrador,Newfoundland & Labrador / Terre-Neuve-et-Labrador,CA-NL,St. Lawrence,St. Lawrence,Burin Peninsula,,CA05,,-02:30,,,,,CAN,North America,CA
4565,8094,t,39.639721,-74.973074,57,NJ,New Jersey,856/609,WILLIAMSTOWN,Williamstown,GLOUCESTER,015,34,5,Y,Northeast,Middle Atlantic,01|02,350.02|2092.43,USA,North America,US
9441,16125,t,41.403217,-80.363363,1006,PA,Pennsylvania,724,GREENVILLE,Greenville,MERCER,085,42,5,Y,Northeast,Middle Atlantic,03,3850.8,USA,North America,US
32996,53207,t,42.977949,-87.894146,593,WI,Wisconsin,414,MILWAUKEE,Milwaukee,MILWAUKEE,079,55,6,Y,Midwest,East North Central,01|04,1727.92|128.35,USA,North America,US
34215,55130,t,44.973752,-93.083074,703,MN,Minnesota,612/651/952,SAINT PAUL,Saint Paul,RAMSEY,123,27,6,Y,Midwest,West North Central,04,332.49,USA,North America,US
14390,23509,t,36.882082,-76.263058,0,VA,Virginia,757,NORFOLK,Norfolk,NORFOLK CITY,710,51,5,Y,South,South Atlantic,02|03,991.68|947.1,USA,North America,US
27284,44303,t,41.104033,-81.536473,989,OH,Ohio,330,AKRON,Akron,SUMMIT,153,39,5,Y,Midwest,East North Central,11|13,244.46|894.3,USA,North America,US
23063,36869,t,32.407413,-85.104656,275,AL,Alabama,334,PHENIX CITY,Phenix City,RUSSELL,113,01,6,Y,South,East South Central,03,7543.86,USA,North America,US
52676,87192,t,35.0844,-106.6508,4943,NM,New Mexico,505,ALBUQUERQUE,Albuquerque,BERNALILLO,001,35,7,Y,West,Mountain,01,4600.14,USA,North America,US
28551,46176,t,39.523894,-85.79089,768,IN,Indiana,317/765,SHELBYVILLE,Shelbyville,SHELBY,145,18,5,Y,Midwest,East North Central,06,6206.83,USA,North America,US
49801,80540,t,40.24795,-105.457266,5344,CO,Colorado,303,LYONS,Lyons,BOULDER,013,08,7,Y,West,Mountain,02,7535.34,USA,North America,US
20180,32563,t,30.400437,-87.052433,15,FL,Florida,850,GULF BREEZE,Gulf Breeze,SANTA ROSA,113,12,6,Y,South,South Atlantic,01,4016.3,USA,North America,US
49281,79739,t,31.869194,-101.52032,2635,TX,Texas,432,GARDEN CITY,Garden City,GLASSCOCK,173,48,6,Y,South,West South Central,11|23,27832.17|58059.18,USA,North America,US
51929,85140,t,33.245483,-111.530217,1490,AZ,Arizona,480,SAN TAN VALLEY,San Tan Valley,PINAL,021,04,7,N,West,Mountain,04,33199.45,USA,North America,US
8996,15425,t,40.0306,-79.566651,981,PA,Pennsylvania,724,CONNELLSVILLE,Connellsville,FAYETTE,051,42,5,Y,Northeast,Middle Atlantic,09,5730.09,USA,North America,US
7142,12866,t,43.05036,-73.75394,288,NY,New York,518,SARATOGA SPRINGS,Saratoga Springs,SARATOGA,091,36,5,Y,Northeast,Middle Atlantic,20,1231.28,USA,North America,US
42923,69166,t,41.913269,-100.548193,2845,NE,Nebraska,308,THEDFORD,Thedford,THOMAS,171,31,6,Y,Midwest,West North Central,03,67435.41,USA,North America,US
45983,75001,t,32.959787,-96.838472,463,TX,Texas,972/214,ADDISON,Addison,DALLAS,113,48,6,Y,South,West South Central,24,262.76,USA,North America,US
13217,21555,t,39.592346,-78.561232,641,MD,Maryland,301,OLDTOWN,Oldtown,ALLEGANY,001,24,5,Y,South,South Atlantic,06,1950.26,USA,North America,US
37414,60148,t,41.877628,-88.019802,746,IL,Illinois,630/847/331,LOMBARD,Lombard,DUPAGE,043,17,6,Y,Midwest,East North Central,06|08,378.78|205.52,USA,North America,US
30233,48377,t,42.505064,-83.479508,943,MI,Michigan,248,NOVI,Novi,OAKLAND,125,26,5,Y,Midwest,East North Central,11,419.26,USA,North America,US
45199,73170,t,35.327058,-97.555363,1165,OK,Oklahoma,405,OKLAHOMA CITY,Oklahoma City,CLEVELAND,027,40,6,Y,South,West South Central,04,9777.28,USA,North America,US
34187,55115,t,45.06991,-92.946788,639,MN,Minnesota,651,SAINT PAUL,Saint Paul,WASHINGTON,163,27,6,Y,Midwest,West North Central,04,332.49,USA,North America,US
44471,72207,t,34.776216,-92.341736,264,AR,Arkansas,501,LITTLE ROCK,Little Rock,PULASKI,119,05,6,Y,South,West South Central,02,4978.12,USA,North America,US
10245,17319,t,40.159984,-76.802758,370,PA,Pennsylvania,717,ETTERS,Etters,YORK,133,42,5,Y,Northeast,Middle Atlantic,04,1517.84,USA,North America,US
43510,70820,t,30.372872,-91.181468,60,LA,Louisiana,225,BATON ROUGE,Baton Rouge,EAST BATON ROUGE,033,22,6,Y,South,West South Central,06,4033.89,USA,North America,US
584503,K1P6E5,t,45.419108,-75.70386,56,Ontario,Ontario,CA-ON,Ottawa,Ottawa,Ottawa,,CA08,,-04:00,,,,,CAN,North America,CA
737247,G6P4T2,t,46.063384,-71.95944,149,Québec / Quebec,Québec / Quebec,CA-QC,Victoriaville,Victoriaville,Arthabaska,,CA10,,-04:00,,,,,CAN,North America,CA
2827,5401,t,44.484133,-73.247857,113,VT,Vermont,802,BURLINGTON,Burlington,CHITTENDEN,007,50,5,Y,Northeast,New England,"","",USA,North America,US
42184,68022,t,41.277232,-96.252542,1034,NE,Nebraska,402,ELKHORN,Elkhorn,DOUGLAS,055,31,6,Y,Midwest,West North Central,02,509.74,USA,North America,US
18474,30021,t,33.807873,-84.239082,1019,GA,Georgia,404/770/678,CLARKSTON,Clarkston,DEKALB,089,13,5,Y,South,South Atlantic,04,496.6,USA,North America,US
56035,94403,t,37.540657,-122.304154,15,CA,California,650,SAN MATEO,San Mateo,SAN MATEO,081,06,8,Y,West,Pacific,14,259.5,USA,North America,US
26336,42728,t,37.117665,-85.264332,752,KY,Kentucky,270,COLUMBIA,Columbia,ADAIR,001,21,6,Y,South,East South Central,01,12079.5,USA,North America,US
29415,47441,t,39.062924,-87.146653,529,IN,Indiana,812,LINTON,Linton,GREENE,055,18,5,Y,Midwest,East North Central,08,7255.39,USA,North America,US
34402,55418,t,45.020467,-93.245544,812,MN,Minnesota,612/763,MINNEAPOLIS,Minneapolis,HENNEPIN,053,27,6,Y,Midwest,West North Central,01|04|05,11973.99|332.49|135.66,USA,North America,US
21194,33629,t,27.921808,-82.508953,15,FL,Florida,813,TAMPA,Tampa,HILLSBOROUGH,057,12,5,Y,South,South Atlantic,14,265.4,USA,North America,US
36996,59523,t,48.629519,-109.195638,2438,MT,Montana,406,CHINOOK,Chinook,BLAINE,005,30,7,Y,West,Mountain,"","",USA,North America,US
794967,H7L5A8,t,45.596309,-73.741186,13,Québec / Quebec,Québec / Quebec,CA-QC,Laval,Laval,Laval,,CA10,,-04:00,,,,,CAN,North America,CA
20899,33322,t,26.148265,-80.270519,7,FL,Florida,954,FORT LAUDERDALE,Fort Lauderdale,BROWARD,011,12,5,Y,South,South Atlantic,20|22,2427.42|172.88,USA,North America,US
321668,R7A5Y1,t,49.831092,-99.972777,384,Manitoba,Manitoba,CA-MB,Brandon,Brandon,Brandon,,CA03,,-05:00,,,,,CAN,North America,CA
3582,6477,t,41.27948,-73.033412,10,CT,Connecticut,203,ORANGE,Orange,NEW HAVEN,009,09,5,Y,Northeast,New England,03,470.34,USA,North America,US
52846,87571,t,36.410918,-105.525839,6983,NM,New Mexico,505/575,TAOS,Taos,TAOS,055,35,7,Y,West,Mountain,03,44958.52,USA,North America,US
15513,25523,t,38.29271,-82.083241,673,WV,West Virginia,304,HAMLIN,Hamlin,LINCOLN,043,54,5,Y,South,South Atlantic,03,9745.33,USA,North America,US
46687,75948,t,31.290602,-93.769545,296,TX,Texas,409/281,HEMPHILL,Hemphill,SABINE,403,48,6,Y,South,West South Central,01,7858.86,USA,North America,US
18842,30354,t,33.659412,-84.389532,1050,GA,Georgia,404/770/678,ATLANTA,Atlanta,FULTON,121,13,5,Y,South,South Atlantic,05,264.91,USA,North America,US
16451,27420,t,36.0726,-79.7925,837,NC,North Carolina,336/704,GREENSBORO,Greensboro,GUILFORD,081,37,5,Y,South,South Atlantic,12,549.66,USA,North America,US
59638,99710,t,64.8379,-147.7166,0,AK,Alaska,907,FAIRBANKS,Fairbanks,FAIRBANKS NORTH STAR,090,02,9,Y,West,Pacific,00,571951.26,USA,North America,US
855,1886,t,42.588996,-71.441744,40,MA,Massachusetts,978,WESTFORD,Westford,MIDDLESEX,017,25,5,Y,Northeast,New England,03|09,757.86|1214.74,USA,North America,US
7826,13685,t,43.934601,-76.092828,478,NY,New York,315,SACKETS HARBOR,Sackets Harbor,JEFFERSON,045,36,5,Y,Northeast,Middle Atlantic,21,15114.76,USA,North America,US
49323,79821,t,31.968321,-106.60139,3695,TX,Texas,915,ANTHONY,Anthony,EL PASO,141,48,7,Y,South,West South Central,16,710.35,USA,North America,US
748,1612,t,42.315184,-71.934535,475,MA,Massachusetts,508,PAXTON,Paxton,WORCESTER,027,25,5,Y,Northeast,New England,02,1628,USA,North America,US
54881,92397,t,34.347704,-117.57373,1077,CA,California,760,WRIGHTWOOD,Wrightwood,SAN BERNARDINO,071,06,8,Y,West,Pacific,08,32867.21,USA,North America,US
